{
   "type": "FeatureCollection",
   "features": [
  {
    "type": "Feature",
    "geometry": {
       "type": "Point",
       "coordinates":  [ -76.59278987,39.28568749 ]
    },
    "properties": {
    "Location":"1700 EASTERN AVE",
    "District":"SOUTHEAST"
    }
  },
  {
    "type": "Feature",
    "geometry": {
       "type": "Point",
       "coordinates":  [ -76.62139354,39.29599015 ]
    },
    "properties": {
    "Location":"600 N EUTAW ST",
    "District":"CENTRAL"
    }
  },
  {
    "type": "Feature",
    "geometry": {
       "type": "Point",
       "coordinates":  [ -76.70140833,39.34478318 ]
    },
    "properties": {
    "Location":"4600 W NORTHERN PKWY",
    "District":"NORTHWEST"
    }
  },
  {
    "type": "Feature",
    "geometry": {
       "type": "Point",
       "coordinates":  [ -76.70140833,39.34478318 ]
    },
    "properties": {
    "Location":"4600 W NORTHERN PKWY",
    "District":"NORTHWEST"
    }
  },
  {
    "type": "Feature",
    "geometry": {
       "type": "Point",
       "coordinates":  [ -76.56204382,39.35172472 ]
    },
    "properties": {
    "Location":"5400 HARFORD RD",
    "District":"NORTHEAST"
    }
  },
  {
    "type": "Feature",
    "geometry": {
       "type": "Point",
       "coordinates":  [ -76.61118566,39.32220861 ]
    },
    "properties": {
    "Location":"2800 BARCLAY ST",
    "District":"NORTHERN"
    }
  },
  {
    "type": "Feature",
    "geometry": {
       "type": "Point",
       "coordinates":  [ -76.56524992,39.32101705 ]
    },
    "properties": {
    "Location":"3500 PELHAM AVE",
    "District":"NORTHEAST"
    }
  },
  {
    "type": "Feature",
    "geometry": {
       "type": "Point",
       "coordinates":  [ -76.64215361,39.2752598 ]
    },
    "properties": {
    "Location":"1800 WASHINGTON BLVD",
    "District":"SOUTHERN"
    }
  },
  {
    "type": "Feature",
    "geometry": {
       "type": "Point",
       "coordinates":  [ -76.60794956,39.2424149 ]
    },
    "properties": {
    "Location":"3400 S HANOVER ST",
    "District":"SOUTHERN"
    }
  },
  {
    "type": "Feature",
    "geometry": {
       "type": "Point",
       "coordinates":  [ -76.68273428,39.34229893 ]
    },
    "properties": {
    "Location":"5100 REISTERSTOWN RD",
    "District":"NORTHWEST"
    }
  },
  {
    "type": "Feature",
    "geometry": {
       "type": "Point",
       "coordinates":  [ -76.58976824,39.3228262 ]
    },
    "properties": {
    "Location":"2700 FENWICK AVE",
    "District":"NORTHEAST"
    }
  },
  {
    "type": "Feature",
    "geometry": {
       "type": "Point",
       "coordinates":  [ -76.61150505,39.29883154 ]
    },
    "properties": {
    "Location":"300 E MADISON ST",
    "District":"CENTRAL"
    }
  },
  {
    "type": "Feature",
    "geometry": {
       "type": "Point",
       "coordinates":  [ -76.57311181,39.30976994 ]
    },
    "properties": {
    "Location":"1600 EDISON HWY",
    "District":"EASTERN"
    }
  },
  {
    "type": "Feature",
    "geometry": {
       "type": "Point",
       "coordinates":  [ -76.61585126,39.29970481 ]
    },
    "properties": {
    "Location":"900 N CHARLES ST",
    "District":"CENTRAL"
    }
  },
  {
    "type": "Feature",
    "geometry": {
       "type": "Point",
       "coordinates":  [ -76.61605777,39.32697534 ]
    },
    "properties": {
    "Location":"3200 SAINT PAUL ST",
    "District":"NORTHERN"
    }
  },
  {
    "type": "Feature",
    "geometry": {
       "type": "Point",
       "coordinates":  [ -76.54640129999999,39.30252218 ]
    },
    "properties": {
    "Location":"5900 PULASKI HWY",
    "District":"NORTHEAST"
    }
  },
  {
    "type": "Feature",
    "geometry": {
       "type": "Point",
       "coordinates":  [ -76.69105684,39.34816633 ]
    },
    "properties": {
    "Location":"5500 REISTERSTOWN RD",
    "District":"NORTHWEST"
    }
  },
  {
    "type": "Feature",
    "geometry": {
       "type": "Point",
       "coordinates":  [ -76.58459754,39.32920015 ]
    },
    "properties": {
    "Location":"2100 ERDMAN AVE",
    "District":"NORTHEAST"
    }
  },
  {
    "type": "Feature",
    "geometry": {
       "type": "Point",
       "coordinates":  [ -76.55213211,39.33770541 ]
    },
    "properties": {
    "Location":"5300 BELAIR RD",
    "District":"NORTHEAST"
    }
  },
  {
    "type": "Feature",
    "geometry": {
       "type": "Point",
       "coordinates":  [ -76.55213211,39.33770541 ]
    },
    "properties": {
    "Location":"5300 BELAIR RD",
    "District":"NORTHEAST"
    }
  },
  {
    "type": "Feature",
    "geometry": {
       "type": "Point",
       "coordinates":  [ -76.55712202,39.28693624 ]
    },
    "properties": {
    "Location":"4600 EASTERN AVE",
    "District":"SOUTHEAST"
    }
  },
  {
    "type": "Feature",
    "geometry": {
       "type": "Point",
       "coordinates":  [ -76.70789827,39.36023794 ]
    },
    "properties": {
    "Location":"6800 REISTERSTOWN RD",
    "District":"NORTHWEST"
    }
  },
  {
    "type": "Feature",
    "geometry": {
       "type": "Point",
       "coordinates":  [ -76.59849956,39.29273749 ]
    },
    "properties": {
    "Location":"1400 E FAYETTE ST",
    "District":"SOUTHEAST"
    }
  },
  {
    "type": "Feature",
    "geometry": {
       "type": "Point",
       "coordinates":  [ -76.6893961,39.34700571 ]
    },
    "properties": {
    "Location":"5400 REISTERSTOWN RD",
    "District":"NORTHWEST"
    }
  },
  {
    "type": "Feature",
    "geometry": {
       "type": "Point",
       "coordinates":  [ -76.65194578,39.34380374 ]
    },
    "properties": {
    "Location":"2200 W COLD SPRING LN",
    "District":"NORTHERN"
    }
  },
  {
    "type": "Feature",
    "geometry": {
       "type": "Point",
       "coordinates":  [ -76.69541129,39.35122392 ]
    },
    "properties": {
    "Location":"5900 REISTERSTOWN RD",
    "District":"NORTHWEST"
    }
  },
  {
    "type": "Feature",
    "geometry": {
       "type": "Point",
       "coordinates":  [ -76.61370546,39.28798712 ]
    },
    "properties": {
    "Location":"0 LIGHT ST",
    "District":"CENTRAL"
    }
  },
  {
    "type": "Feature",
    "geometry": {
       "type": "Point",
       "coordinates":  [ -76.61237925,39.29011059 ]
    },
    "properties": {
    "Location":"0 N CALVERT ST",
    "District":"CENTRAL"
    }
  },
  {
    "type": "Feature",
    "geometry": {
       "type": "Point",
       "coordinates":  [ -76.6170192,39.31736426 ]
    },
    "properties": {
    "Location":"2400 N CHARLES ST",
    "District":"NORTHERN"
    }
  },
  {
    "type": "Feature",
    "geometry": {
       "type": "Point",
       "coordinates":  [ -76.62142937,39.32258727 ]
    },
    "properties": {
    "Location":"200 W 29TH ST",
    "District":"NORTHERN"
    }
  },
  {
    "type": "Feature",
    "geometry": {
       "type": "Point",
       "coordinates":  [ -76.67183843,39.35112858 ]
    },
    "properties": {
    "Location":"2900 W BELVEDERE AVE",
    "District":"NORTHWEST"
    }
  },
  {
    "type": "Feature",
    "geometry": {
       "type": "Point",
       "coordinates":  [ -76.6614713,39.29304944 ]
    },
    "properties": {
    "Location":"2700 W FRANKLIN ST",
    "District":"WESTERN"
    }
  },
  {
    "type": "Feature",
    "geometry": {
       "type": "Point",
       "coordinates":  [ -76.59783135,39.31440437 ]
    },
    "properties": {
    "Location":"2100 HARFORD RD",
    "District":"EASTERN"
    }
  },
  {
    "type": "Feature",
    "geometry": {
       "type": "Point",
       "coordinates":  [ -76.59791861,39.30421134 ]
    },
    "properties": {
    "Location":"1200 N CAROLINE ST",
    "District":"EASTERN"
    }
  },
  {
    "type": "Feature",
    "geometry": {
       "type": "Point",
       "coordinates":  [ -76.6278708,39.2742294 ]
    },
    "properties": {
    "Location":"1500 RUSSELL ST",
    "District":"SOUTHERN"
    }
  },
  {
    "type": "Feature",
    "geometry": {
       "type": "Point",
       "coordinates":  [ -76.5848857,39.29580052 ]
    },
    "properties": {
    "Location":"400 N PATTERSON PARK AVE",
    "District":"EASTERN"
    }
  },
  {
    "type": "Feature",
    "geometry": {
       "type": "Point",
       "coordinates":  [ -76.62139354,39.29599015 ]
    },
    "properties": {
    "Location":"600 N EUTAW ST",
    "District":"CENTRAL"
    }
  },
  {
    "type": "Feature",
    "geometry": {
       "type": "Point",
       "coordinates":  [ -76.66085172,39.26463643 ]
    },
    "properties": {
    "Location":"2800 GEORGETOWN RD",
    "District":"SOUTHWEST"
    }
  },
  {
    "type": "Feature",
    "geometry": {
       "type": "Point",
       "coordinates":  [ -76.61511251,39.29000393 ]
    },
    "properties": {
    "Location":"0 N CHARLES ST",
    "District":"CENTRAL"
    }
  },
  {
    "type": "Feature",
    "geometry": {
       "type": "Point",
       "coordinates":  [ -76.61930584,39.28638784 ]
    },
    "properties": {
    "Location":"300 W PRATT ST",
    "District":"CENTRAL"
    }
  },
  {
    "type": "Feature",
    "geometry": {
       "type": "Point",
       "coordinates":  [ -76.6278708,39.2742294 ]
    },
    "properties": {
    "Location":"1500 RUSSELL ST",
    "District":"SOUTHERN"
    }
  },
  {
    "type": "Feature",
    "geometry": {
       "type": "Point",
       "coordinates":  [ -76.59337671,39.28656668 ]
    },
    "properties": {
    "Location":"400 S BROADWAY",
    "District":"SOUTHEAST"
    }
  },
  {
    "type": "Feature",
    "geometry": {
       "type": "Point",
       "coordinates":  [ -76.58141259,39.29880189 ]
    },
    "properties": {
    "Location":"2500 E MONUMENT ST",
    "District":"EASTERN"
    }
  },
  {
    "type": "Feature",
    "geometry": {
       "type": "Point",
       "coordinates":  [ -76.61100146,39.32817393 ]
    },
    "properties": {
    "Location":"400 E 33RD ST",
    "District":"NORTHERN"
    }
  },
  {
    "type": "Feature",
    "geometry": {
       "type": "Point",
       "coordinates":  [ -76.61882966,39.30331393 ]
    },
    "properties": {
    "Location":"1000 PARK AVE",
    "District":"CENTRAL"
    }
  },
  {
    "type": "Feature",
    "geometry": {
       "type": "Point",
       "coordinates":  [ -76.58141259,39.29880189 ]
    },
    "properties": {
    "Location":"2500 E MONUMENT ST",
    "District":"EASTERN"
    }
  },
  {
    "type": "Feature",
    "geometry": {
       "type": "Point",
       "coordinates":  [ -76.55584076,39.20011122 ]
    },
    "properties": {
    "Location":"6400 Fort Smallwood Rd",
    "District":"SOUTHERN"
    }
  },
  {
    "type": "Feature",
    "geometry": {
       "type": "Point",
       "coordinates":  [ -76.56898586,39.28698059 ]
    },
    "properties": {
    "Location":"400 S HIGHLAND AVE",
    "District":"SOUTHEAST"
    }
  },
  {
    "type": "Feature",
    "geometry": {
       "type": "Point",
       "coordinates":  [ -76.64482161,39.31297496 ]
    },
    "properties": {
    "Location":"1500 CLIFTON AVE",
    "District":"WESTERN"
    }
  },
  {
    "type": "Feature",
    "geometry": {
       "type": "Point",
       "coordinates":  [ -76.53472102,39.34092071 ]
    },
    "properties": {
    "Location":"4800 BAYONNE AVE",
    "District":"NORTHEAST"
    }
  },
  {
    "type": "Feature",
    "geometry": {
       "type": "Point",
       "coordinates":  [ -76.62642721,39.28326555 ]
    },
    "properties": {
    "Location":"700 WASHINGTON BLVD",
    "District":"SOUTHERN"
    }
  },
  {
    "type": "Feature",
    "geometry": {
       "type": "Point",
       "coordinates":  [ -76.61534599,39.29188507 ]
    },
    "properties": {
    "Location":"200 N CHARLES ST",
    "District":"CENTRAL"
    }
  },
  {
    "type": "Feature",
    "geometry": {
       "type": "Point",
       "coordinates":  [ -76.61539502,39.29236268 ]
    },
    "properties": {
    "Location":"300 N CHARLES ST",
    "District":"CENTRAL"
    }
  },
  {
    "type": "Feature",
    "geometry": {
       "type": "Point",
       "coordinates":  [ -76.60769054,39.29056182 ]
    },
    "properties": {
    "Location":"600 E FAYETTE ST",
    "District":"CENTRAL"
    }
  },
  {
    "type": "Feature",
    "geometry": {
       "type": "Point",
       "coordinates":  [ -76.5677059,39.31340723 ]
    },
    "properties": {
    "Location":"4200 ERDMAN AVE",
    "District":"EASTERN"
    }
  },
  {
    "type": "Feature",
    "geometry": {
       "type": "Point",
       "coordinates":  [ -76.58461353,39.32921089 ]
    },
    "properties": {
    "Location":"2100 ERDMAN AVE",
    "District":"NORTHEAST"
    }
  },
  {
    "type": "Feature",
    "geometry": {
       "type": "Point",
       "coordinates":  [ -76.67568049,39.3362534 ]
    },
    "properties": {
    "Location":"3600 DOLFIELD AVE",
    "District":"NORTHWEST"
    }
  },
  {
    "type": "Feature",
    "geometry": {
       "type": "Point",
       "coordinates":  [ -76.64865762,39.28515551 ]
    },
    "properties": {
    "Location":"2000 W PRATT ST",
    "District":"SOUTHERN"
    }
  },
  {
    "type": "Feature",
    "geometry": {
       "type": "Point",
       "coordinates":  [ -76.60173656,39.30500386 ]
    },
    "properties": {
    "Location":"1200 E PRESTON ST",
    "District":"EASTERN"
    }
  },
  {
    "type": "Feature",
    "geometry": {
       "type": "Point",
       "coordinates":  [ -76.66339374,39.29439124 ]
    },
    "properties": {
    "Location":"2800 EDMONDSON AVE",
    "District":"WESTERN"
    }
  },
  {
    "type": "Feature",
    "geometry": {
       "type": "Point",
       "coordinates":  [ -76.61165898,39.29898394 ]
    },
    "properties": {
    "Location":"800 GUILFORD AVE",
    "District":"CENTRAL"
    }
  },
  {
    "type": "Feature",
    "geometry": {
       "type": "Point",
       "coordinates":  [ -76.63302246,39.30929084 ]
    },
    "properties": {
    "Location":"2000 EUTAW PL",
    "District":"CENTRAL"
    }
  },
  {
    "type": "Feature",
    "geometry": {
       "type": "Point",
       "coordinates":  [ -76.54535368,39.32624884 ]
    },
    "properties": {
    "Location":"5000 GOODNOW RD",
    "District":"NORTHEAST"
    }
  },
  {
    "type": "Feature",
    "geometry": {
       "type": "Point",
       "coordinates":  [ -76.60940511,39.31840305 ]
    },
    "properties": {
    "Location":"2500 GREENMOUNT AVE",
    "District":"NORTHERN"
    }
  },
  {
    "type": "Feature",
    "geometry": {
       "type": "Point",
       "coordinates":  [ -76.63647234,39.33781636 ]
    },
    "properties": {
    "Location":"1100 W 41ST ST",
    "District":"NORTHERN"
    }
  },
  {
    "type": "Feature",
    "geometry": {
       "type": "Point",
       "coordinates":  [ -76.54324048,39.27217857 ]
    },
    "properties": {
    "Location":"6100 HOLABIRD AVE",
    "District":"SOUTHEAST"
    }
  },
  {
    "type": "Feature",
    "geometry": {
       "type": "Point",
       "coordinates":  [ -76.61539502,39.29236268 ]
    },
    "properties": {
    "Location":"300 N CHARLES ST",
    "District":"CENTRAL"
    }
  },
  {
    "type": "Feature",
    "geometry": {
       "type": "Point",
       "coordinates":  [ -76.64865762,39.28515551 ]
    },
    "properties": {
    "Location":"2000 W PRATT ST",
    "District":"SOUTHERN"
    }
  },
  {
    "type": "Feature",
    "geometry": {
       "type": "Point",
       "coordinates":  [ -76.64005963,39.3425297 ]
    },
    "properties": {
    "Location":"4400 FALLS RD",
    "District":"NORTHERN"
    }
  },
  {
    "type": "Feature",
    "geometry": {
       "type": "Point",
       "coordinates":  [ -76.6252942,39.30798519 ]
    },
    "properties": {
    "Location":"1500 PARK AVE",
    "District":"CENTRAL"
    }
  },
  {
    "type": "Feature",
    "geometry": {
       "type": "Point",
       "coordinates":  [ -76.6252942,39.30798519 ]
    },
    "properties": {
    "Location":"1500 PARK AVE",
    "District":"CENTRAL"
    }
  },
  {
    "type": "Feature",
    "geometry": {
       "type": "Point",
       "coordinates":  [ -76.6252942,39.30798519 ]
    },
    "properties": {
    "Location":"1500 PARK AVE",
    "District":"CENTRAL"
    }
  },
  {
    "type": "Feature",
    "geometry": {
       "type": "Point",
       "coordinates":  [ -76.6252942,39.30798519 ]
    },
    "properties": {
    "Location":"1500 PARK AVE",
    "District":"CENTRAL"
    }
  },
  {
    "type": "Feature",
    "geometry": {
       "type": "Point",
       "coordinates":  [ -76.56929872,39.29182271 ]
    },
    "properties": {
    "Location":"3400 LEVERTON AVE",
    "District":"SOUTHEAST"
    }
  },
  {
    "type": "Feature",
    "geometry": {
       "type": "Point",
       "coordinates":  [ -76.54606292,39.370166600000005 ]
    },
    "properties": {
    "Location":"7300 HARFORD RD",
    "District":"NORTHEAST"
    }
  },
  {
    "type": "Feature",
    "geometry": {
       "type": "Point",
       "coordinates":  [ -76.53939143,39.32443425 ]
    },
    "properties": {
    "Location":"5400 SINCLAIR LN",
    "District":"NORTHEAST"
    }
  },
  {
    "type": "Feature",
    "geometry": {
       "type": "Point",
       "coordinates":  [ -76.53099239,39.3544076 ]
    },
    "properties": {
    "Location":"6600 BELAIR RD",
    "District":"NORTHEAST"
    }
  },
  {
    "type": "Feature",
    "geometry": {
       "type": "Point",
       "coordinates":  [ -76.64011906,39.24793716 ]
    },
    "properties": {
    "Location":"3400 ANNAPOLIS RD",
    "District":"SOUTHERN"
    }
  },
  {
    "type": "Feature",
    "geometry": {
       "type": "Point",
       "coordinates":  [ -76.6399483,39.34256563 ]
    },
    "properties": {
    "Location":"4400 FALLS RD",
    "District":"NORTHERN"
    }
  },
  {
    "type": "Feature",
    "geometry": {
       "type": "Point",
       "coordinates":  [ -76.56869846,39.28663596 ]
    },
    "properties": {
    "Location":"3400 EASTERN AVE",
    "District":"SOUTHEAST"
    }
  },
  {
    "type": "Feature",
    "geometry": {
       "type": "Point",
       "coordinates":  [ -76.61605777,39.32697534 ]
    },
    "properties": {
    "Location":"3200 SAINT PAUL ST",
    "District":"NORTHERN"
    }
  },
  {
    "type": "Feature",
    "geometry": {
       "type": "Point",
       "coordinates":  [ -76.70338724,39.35525228 ]
    },
    "properties": {
    "Location":"4100 PATTERSON AVE",
    "District":"NORTHWEST"
    }
  },
  {
    "type": "Feature",
    "geometry": {
       "type": "Point",
       "coordinates":  [ -76.53680805,39.34925469 ]
    },
    "properties": {
    "Location":"6100 BELAIR RD",
    "District":"NORTHEAST"
    }
  },
  {
    "type": "Feature",
    "geometry": {
       "type": "Point",
       "coordinates":  [ -76.68081317,39.34563087 ]
    },
    "properties": {
    "Location":"3700 W BELVEDERE AVE",
    "District":"NORTHWEST"
    }
  },
  {
    "type": "Feature",
    "geometry": {
       "type": "Point",
       "coordinates":  [ -76.63462022,39.30342931 ]
    },
    "properties": {
    "Location":"1600 PENNSYLVANIA AVE",
    "District":"CENTRAL"
    }
  },
  {
    "type": "Feature",
    "geometry": {
       "type": "Point",
       "coordinates":  [ -76.66312389,39.25803068 ]
    },
    "properties": {
    "Location":"3200 WASHINGTON BLVD",
    "District":"SOUTHWEST"
    }
  },
  {
    "type": "Feature",
    "geometry": {
       "type": "Point",
       "coordinates":  [ -76.63428263,39.33749318 ]
    },
    "properties": {
    "Location":"1000 W 41ST ST",
    "District":"NORTHERN"
    }
  },
  {
    "type": "Feature",
    "geometry": {
       "type": "Point",
       "coordinates":  [ -76.53489139,39.28115747 ]
    },
    "properties": {
    "Location":"6700 GERMAN HILL RD",
    "District":"SOUTHEAST"
    }
  },
  {
    "type": "Feature",
    "geometry": {
       "type": "Point",
       "coordinates":  [ -76.614437,39.277902000000005 ]
    },
    "properties": {
    "Location":"0 W HAMBURG ST",
    "District":"SOUTHERN"
    }
  },
  {
    "type": "Feature",
    "geometry": {
       "type": "Point",
       "coordinates":  [ -76.60940511,39.31840305 ]
    },
    "properties": {
    "Location":"2500 GREENMOUNT AVE",
    "District":"NORTHERN"
    }
  },
  {
    "type": "Feature",
    "geometry": {
       "type": "Point",
       "coordinates":  [ -76.71025393,39.3622231 ]
    },
    "properties": {
    "Location":"7000 REISTERSTOWN RD",
    "District":"NORTHWEST"
    }
  },
  {
    "type": "Feature",
    "geometry": {
       "type": "Point",
       "coordinates":  [ -76.64400046,39.31124039 ]
    },
    "properties": {
    "Location":"2600 PENNSYLVANIA AVE",
    "District":"WESTERN"
    }
  },
  {
    "type": "Feature",
    "geometry": {
       "type": "Point",
       "coordinates":  [ -76.56893497,39.28647759 ]
    },
    "properties": {
    "Location":"3400 EASTERN AVE",
    "District":"SOUTHEAST"
    }
  },
  {
    "type": "Feature",
    "geometry": {
       "type": "Point",
       "coordinates":  [ -76.61186343,39.28958208 ]
    },
    "properties": {
    "Location":"200 E BALTIMORE ST",
    "District":"CENTRAL"
    }
  },
  {
    "type": "Feature",
    "geometry": {
       "type": "Point",
       "coordinates":  [ -76.66775449,39.33857734 ]
    },
    "properties": {
    "Location":"4300 REISTERSTOWN RD",
    "District":"NORTHWEST"
    }
  },
  {
    "type": "Feature",
    "geometry": {
       "type": "Point",
       "coordinates":  [ -76.61210753,39.28821826 ]
    },
    "properties": {
    "Location":"0 S CALVERT ST",
    "District":"CENTRAL"
    }
  },
  {
    "type": "Feature",
    "geometry": {
       "type": "Point",
       "coordinates":  [ -76.5674029,39.27723828 ]
    },
    "properties": {
    "Location":"3500 BOSTON ST",
    "District":"SOUTHEAST"
    }
  },
  {
    "type": "Feature",
    "geometry": {
       "type": "Point",
       "coordinates":  [ -76.59360419,39.29007868 ]
    },
    "properties": {
    "Location":"100 S BROADWAY",
    "District":"SOUTHEAST"
    }
  },
  {
    "type": "Feature",
    "geometry": {
       "type": "Point",
       "coordinates":  [ -76.55982285,39.29175652 ]
    },
    "properties": {
    "Location":"0 S KRESSON ST",
    "District":"SOUTHEAST"
    }
  },
  {
    "type": "Feature",
    "geometry": {
       "type": "Point",
       "coordinates":  [ -76.53514263,39.35092449 ]
    },
    "properties": {
    "Location":"6200 BELAIR RD",
    "District":"NORTHEAST"
    }
  },
  {
    "type": "Feature",
    "geometry": {
       "type": "Point",
       "coordinates":  [ -76.61552529,39.29026231 ]
    },
    "properties": {
    "Location":"0 W FAYETTE ST",
    "District":"CENTRAL"
    }
  },
  {
    "type": "Feature",
    "geometry": {
       "type": "Point",
       "coordinates":  [ -76.69898072,39.3452859 ]
    },
    "properties": {
    "Location":"4400 W NORTHERN PKWY",
    "District":"NORTHWEST"
    }
  },
  {
    "type": "Feature",
    "geometry": {
       "type": "Point",
       "coordinates":  [ -76.675687,39.31083964 ]
    },
    "properties": {
    "Location":"3400 CLIFTON AVE",
    "District":"SOUTHWEST"
    }
  },
  {
    "type": "Feature",
    "geometry": {
       "type": "Point",
       "coordinates":  [ -76.61999999,39.29932261 ]
    },
    "properties": {
    "Location":"800 N HOWARD ST",
    "District":"CENTRAL"
    }
  },
  {
    "type": "Feature",
    "geometry": {
       "type": "Point",
       "coordinates":  [ -76.61098309,39.32465689 ]
    },
    "properties": {
    "Location":"400 E 30TH ST",
    "District":"NORTHERN"
    }
  },
  {
    "type": "Feature",
    "geometry": {
       "type": "Point",
       "coordinates":  [ -76.61098309,39.32465689 ]
    },
    "properties": {
    "Location":"400 E 30TH ST",
    "District":"NORTHERN"
    }
  },
  {
    "type": "Feature",
    "geometry": {
       "type": "Point",
       "coordinates":  [ -76.58205623,39.34049166 ]
    },
    "properties": {
    "Location":"1900 ARGONNE DR",
    "District":"NORTHEAST"
    }
  },
  {
    "type": "Feature",
    "geometry": {
       "type": "Point",
       "coordinates":  [ -76.60904694,39.30808661 ]
    },
    "properties": {
    "Location":"1600 GREENMOUNT AVE",
    "District":"EASTERN"
    }
  },
  {
    "type": "Feature",
    "geometry": {
       "type": "Point",
       "coordinates":  [ -76.60535111,39.31418154 ]
    },
    "properties": {
    "Location":"900 E 22ND ST",
    "District":"EASTERN"
    }
  },
  {
    "type": "Feature",
    "geometry": {
       "type": "Point",
       "coordinates":  [ -76.61784348,39.28950567 ]
    },
    "properties": {
    "Location":"200 W BALTIMORE ST N",
    "District":"CENTRAL"
    }
  },
  {
    "type": "Feature",
    "geometry": {
       "type": "Point",
       "coordinates":  [ -76.64038512,39.24684536 ]
    },
    "properties": {
    "Location":"3400 ANNAPOLIS RD",
    "District":"SOUTHERN"
    }
  },
  {
    "type": "Feature",
    "geometry": {
       "type": "Point",
       "coordinates":  [ -76.61565042,39.27771273 ]
    },
    "properties": {
    "Location":"1000 S HANOVER ST",
    "District":"SOUTHERN"
    }
  },
  {
    "type": "Feature",
    "geometry": {
       "type": "Point",
       "coordinates":  [ -76.62281995,39.25012413 ]
    },
    "properties": {
    "Location":"600 CHERRY HILL RD",
    "District":"SOUTHERN"
    }
  },
  {
    "type": "Feature",
    "geometry": {
       "type": "Point",
       "coordinates":  [ -76.61237925,39.29011059 ]
    },
    "properties": {
    "Location":"0 N CALVERT ST",
    "District":"CENTRAL"
    }
  },
  {
    "type": "Feature",
    "geometry": {
       "type": "Point",
       "coordinates":  [ -76.65351326,39.31875052 ]
    },
    "properties": {
    "Location":"2400 LIBERTY HGTS AVE",
    "District":"WESTERN"
    }
  },
  {
    "type": "Feature",
    "geometry": {
       "type": "Point",
       "coordinates":  [ -76.57846241,39.31737048 ]
    },
    "properties": {
    "Location":"2400 BELAIR RD",
    "District":"NORTHEAST"
    }
  },
  {
    "type": "Feature",
    "geometry": {
       "type": "Point",
       "coordinates":  [ -76.59370282,39.28654971 ]
    },
    "properties": {
    "Location":"400 S BROADWAY",
    "District":"SOUTHEAST"
    }
  },
  {
    "type": "Feature",
    "geometry": {
       "type": "Point",
       "coordinates":  [ -76.61237925,39.29011059 ]
    },
    "properties": {
    "Location":"0 N CALVERT ST",
    "District":"CENTRAL"
    }
  },
  {
    "type": "Feature",
    "geometry": {
       "type": "Point",
       "coordinates":  [ -76.62025039,39.30675498 ]
    },
    "properties": {
    "Location":"1200 W MOUNT ROYAL AVE",
    "District":"CENTRAL"
    }
  },
  {
    "type": "Feature",
    "geometry": {
       "type": "Point",
       "coordinates":  [ -76.64169944,39.27559762 ]
    },
    "properties": {
    "Location":"1700 WASHINGTON BLVD",
    "District":"SOUTHERN"
    }
  },
  {
    "type": "Feature",
    "geometry": {
       "type": "Point",
       "coordinates":  [ -76.57799933,39.2790745 ]
    },
    "properties": {
    "Location":"2700 BOSTON ST",
    "District":"SOUTHEAST"
    }
  },
  {
    "type": "Feature",
    "geometry": {
       "type": "Point",
       "coordinates":  [ -76.60940511,39.31840305 ]
    },
    "properties": {
    "Location":"2500 GREENMOUNT AVE",
    "District":"NORTHERN"
    }
  },
  {
    "type": "Feature",
    "geometry": {
       "type": "Point",
       "coordinates":  [ -76.59939284,39.22788191 ]
    },
    "properties": {
    "Location":"4200 THAYER CT",
    "District":"SOUTHERN"
    }
  },
  {
    "type": "Feature",
    "geometry": {
       "type": "Point",
       "coordinates":  [ -76.59649379,39.3037496 ]
    },
    "properties": {
    "Location":"1100 N BOND ST",
    "District":"EASTERN"
    }
  },
  {
    "type": "Feature",
    "geometry": {
       "type": "Point",
       "coordinates":  [ -76.59649379,39.3037496 ]
    },
    "properties": {
    "Location":"1100 N BOND ST",
    "District":"EASTERN"
    }
  },
  {
    "type": "Feature",
    "geometry": {
       "type": "Point",
       "coordinates":  [ -76.66678657,39.33998861 ]
    },
    "properties": {
    "Location":"4400 PARK HEIGHTS AVE",
    "District":"NORTHWEST"
    }
  },
  {
    "type": "Feature",
    "geometry": {
       "type": "Point",
       "coordinates":  [ -76.67704822,39.27205907 ]
    },
    "properties": {
    "Location":"3500 WILKENS AVE",
    "District":"SOUTHWEST"
    }
  },
  {
    "type": "Feature",
    "geometry": {
       "type": "Point",
       "coordinates":  [ -76.6736356,39.34750899 ]
    },
    "properties": {
    "Location":"5000 PARK HEIGHTS AVE",
    "District":"NORTHWEST"
    }
  },
  {
    "type": "Feature",
    "geometry": {
       "type": "Point",
       "coordinates":  [ -76.56642999,39.34662875 ]
    },
    "properties": {
    "Location":"4900 HARFORD RD",
    "District":"NORTHEAST"
    }
  },
  {
    "type": "Feature",
    "geometry": {
       "type": "Point",
       "coordinates":  [ -76.69650975,39.33158826 ]
    },
    "properties": {
    "Location":"4700 LIBERTY HEIGHTS AVE",
    "District":"NORTHWEST"
    }
  },
  {
    "type": "Feature",
    "geometry": {
       "type": "Point",
       "coordinates":  [ -76.61370546,39.28798712 ]
    },
    "properties": {
    "Location":"0 LIGHT ST",
    "District":"CENTRAL"
    }
  },
  {
    "type": "Feature",
    "geometry": {
       "type": "Point",
       "coordinates":  [ -76.67420826,39.33457934 ]
    },
    "properties": {
    "Location":"3500 DOLFIELD AVE",
    "District":"NORTHWEST"
    }
  },
  {
    "type": "Feature",
    "geometry": {
       "type": "Point",
       "coordinates":  [ -76.60449748,39.23690642 ]
    },
    "properties": {
    "Location":"400 E PATAPSCO AVE",
    "District":"SOUTHERN"
    }
  },
  {
    "type": "Feature",
    "geometry": {
       "type": "Point",
       "coordinates":  [ -76.56986426,39.29825743 ]
    },
    "properties": {
    "Location":"600 N HIGHLAND AVE",
    "District":"SOUTHEAST"
    }
  },
  {
    "type": "Feature",
    "geometry": {
       "type": "Point",
       "coordinates":  [ -76.58817047,39.305147399999996 ]
    },
    "properties": {
    "Location":"2100 MURA ST",
    "District":"EASTERN"
    }
  },
  {
    "type": "Feature",
    "geometry": {
       "type": "Point",
       "coordinates":  [ -76.65435151,39.28418736 ]
    },
    "properties": {
    "Location":"2300 FREDERICK AVE",
    "District":"SOUTHWEST"
    }
  },
  {
    "type": "Feature",
    "geometry": {
       "type": "Point",
       "coordinates":  [ -76.61076527,39.28796105 ]
    },
    "properties": {
    "Location":"300 E LOMBARD ST",
    "District":"CENTRAL"
    }
  },
  {
    "type": "Feature",
    "geometry": {
       "type": "Point",
       "coordinates":  [ -76.66442224,39.34674097 ]
    },
    "properties": {
    "Location":"4800 OLNEY RD",
    "District":"NORTHERN"
    }
  },
  {
    "type": "Feature",
    "geometry": {
       "type": "Point",
       "coordinates":  [ -76.66442224,39.34674097 ]
    },
    "properties": {
    "Location":"4800 OLNEY RD",
    "District":"NORTHERN"
    }
  },
  {
    "type": "Feature",
    "geometry": {
       "type": "Point",
       "coordinates":  [ -76.61237925,39.29011059 ]
    },
    "properties": {
    "Location":"0 N CALVERT ST",
    "District":"CENTRAL"
    }
  },
  {
    "type": "Feature",
    "geometry": {
       "type": "Point",
       "coordinates":  [ -76.57358276,39.338831799999994 ]
    },
    "properties": {
    "Location":"4200 HARFORD RD",
    "District":"NORTHEAST"
    }
  },
  {
    "type": "Feature",
    "geometry": {
       "type": "Point",
       "coordinates":  [ -76.60449748,39.23690642 ]
    },
    "properties": {
    "Location":"400 E PATAPSCO AVE",
    "District":"SOUTHERN"
    }
  },
  {
    "type": "Feature",
    "geometry": {
       "type": "Point",
       "coordinates":  [ -76.63462022,39.30342931 ]
    },
    "properties": {
    "Location":"1600 PENNSYLVANIA AVE",
    "District":"CENTRAL"
    }
  },
  {
    "type": "Feature",
    "geometry": {
       "type": "Point",
       "coordinates":  [ -76.54546985,39.34234671 ]
    },
    "properties": {
    "Location":"5700 BELAIR RD",
    "District":"NORTHEAST"
    }
  },
  {
    "type": "Feature",
    "geometry": {
       "type": "Point",
       "coordinates":  [ -76.62716075,39.345050799999996 ]
    },
    "properties": {
    "Location":"200 W COLD SPRING LN",
    "District":"NORTHERN"
    }
  },
  {
    "type": "Feature",
    "geometry": {
       "type": "Point",
       "coordinates":  [ -76.65467229,39.28406773 ]
    },
    "properties": {
    "Location":"2400 FREDERICK AVE",
    "District":"SOUTHWEST"
    }
  },
  {
    "type": "Feature",
    "geometry": {
       "type": "Point",
       "coordinates":  [ -76.62642721,39.28326555 ]
    },
    "properties": {
    "Location":"700 WASHINGTON BLVD",
    "District":"SOUTHERN"
    }
  },
  {
    "type": "Feature",
    "geometry": {
       "type": "Point",
       "coordinates":  [ -76.62868881,39.33712324 ]
    },
    "properties": {
    "Location":"700 W 40TH ST",
    "District":"NORTHERN"
    }
  },
  {
    "type": "Feature",
    "geometry": {
       "type": "Point",
       "coordinates":  [ -76.54765508,39.28750007 ]
    },
    "properties": {
    "Location":"5700 EASTERN AVE",
    "District":"SOUTHEAST"
    }
  },
  {
    "type": "Feature",
    "geometry": {
       "type": "Point",
       "coordinates":  [ -76.62852609999999,39.28306066 ]
    },
    "properties": {
    "Location":"700 WASHINGTON BLVD",
    "District":"SOUTHERN"
    }
  },
  {
    "type": "Feature",
    "geometry": {
       "type": "Point",
       "coordinates":  [ -76.61237925,39.29011059 ]
    },
    "properties": {
    "Location":"0 N CALVERT ST",
    "District":"CENTRAL"
    }
  },
  {
    "type": "Feature",
    "geometry": {
       "type": "Point",
       "coordinates":  [ -76.5967114,39.32333649 ]
    },
    "properties": {
    "Location":"1500 CARSWELL ST",
    "District":"NORTHEAST"
    }
  },
  {
    "type": "Feature",
    "geometry": {
       "type": "Point",
       "coordinates":  [ -76.66662539,39.33961631 ]
    },
    "properties": {
    "Location":"2700 W COLD SPRING LN",
    "District":"NORTHWEST"
    }
  },
  {
    "type": "Feature",
    "geometry": {
       "type": "Point",
       "coordinates":  [ -76.66662539,39.33961631 ]
    },
    "properties": {
    "Location":"2700 W COLD SPRING LN",
    "District":"NORTHWEST"
    }
  },
  {
    "type": "Feature",
    "geometry": {
       "type": "Point",
       "coordinates":  [ -76.67047778,39.34225984 ]
    },
    "properties": {
    "Location":"3300 SAINT AMBROSE AVE",
    "District":"NORTHWEST"
    }
  },
  {
    "type": "Feature",
    "geometry": {
       "type": "Point",
       "coordinates":  [ -76.65970968,39.28767182 ]
    },
    "properties": {
    "Location":"2700 W BALTIMORE ST",
    "District":"SOUTHWEST"
    }
  },
  {
    "type": "Feature",
    "geometry": {
       "type": "Point",
       "coordinates":  [ -76.69541129,39.35122392 ]
    },
    "properties": {
    "Location":"5900 REISTERSTOWN RD",
    "District":"NORTHWEST"
    }
  },
  {
    "type": "Feature",
    "geometry": {
       "type": "Point",
       "coordinates":  [ -76.59645619,39.31557977 ]
    },
    "properties": {
    "Location":"2200 HARFORD RD",
    "District":"EASTERN"
    }
  },
  {
    "type": "Feature",
    "geometry": {
       "type": "Point",
       "coordinates":  [ -76.59370989,39.32745111 ]
    },
    "properties": {
    "Location":"1600 CHILTON ST",
    "District":"NORTHEAST"
    }
  },
  {
    "type": "Feature",
    "geometry": {
       "type": "Point",
       "coordinates":  [ -76.64052632,39.34436623 ]
    },
    "properties": {
    "Location":"4500 FALLS RD",
    "District":"NORTHERN"
    }
  },
  {
    "type": "Feature",
    "geometry": {
       "type": "Point",
       "coordinates":  [ -76.54440809,39.37188451 ]
    },
    "properties": {
    "Location":"7600 HARFORD RD",
    "District":"NORTHEAST"
    }
  },
  {
    "type": "Feature",
    "geometry": {
       "type": "Point",
       "coordinates":  [ -76.58418587,39.28500349 ]
    },
    "properties": {
    "Location":"2300 FLEET ST",
    "District":"SOUTHEAST"
    }
  },
  {
    "type": "Feature",
    "geometry": {
       "type": "Point",
       "coordinates":  [ -76.63662644,39.28557015 ]
    },
    "properties": {
    "Location":"1200 W PRATT ST",
    "District":"SOUTHERN"
    }
  },
  {
    "type": "Feature",
    "geometry": {
       "type": "Point",
       "coordinates":  [ -76.68306428,39.32747191 ]
    },
    "properties": {
    "Location":"3900 LIBERTY HEIGHTS AVE",
    "District":"NORTHWEST"
    }
  },
  {
    "type": "Feature",
    "geometry": {
       "type": "Point",
       "coordinates":  [ -76.59804787,39.30451181 ]
    },
    "properties": {
    "Location":"1200 N CAROLINE ST",
    "District":"EASTERN"
    }
  },
  {
    "type": "Feature",
    "geometry": {
       "type": "Point",
       "coordinates":  [ -76.60807587,39.29315041 ]
    },
    "properties": {
    "Location":"200 N GAY ST",
    "District":"EASTERN"
    }
  },
  {
    "type": "Feature",
    "geometry": {
       "type": "Point",
       "coordinates":  [ -76.69807435,39.2931167 ]
    },
    "properties": {
    "Location":"4700 EDMONDSON AVE",
    "District":"SOUTHWEST"
    }
  },
  {
    "type": "Feature",
    "geometry": {
       "type": "Point",
       "coordinates":  [ -76.70544266,39.35865798 ]
    },
    "properties": {
    "Location":"6700 REISTERSTOWN RD",
    "District":"NORTHWEST"
    }
  },
  {
    "type": "Feature",
    "geometry": {
       "type": "Point",
       "coordinates":  [ -76.61804792,39.3123687 ]
    },
    "properties": {
    "Location":"2000 MARYLAND AVE",
    "District":"NORTHERN"
    }
  },
  {
    "type": "Feature",
    "geometry": {
       "type": "Point",
       "coordinates":  [ -76.56375476,39.34969942 ]
    },
    "properties": {
    "Location":"5200 HARFORD RD",
    "District":"NORTHEAST"
    }
  },
  {
    "type": "Feature",
    "geometry": {
       "type": "Point",
       "coordinates":  [ -76.54477025,39.31583476 ]
    },
    "properties": {
    "Location":"6000 MORAVIA RD",
    "District":"NORTHEAST"
    }
  },
  {
    "type": "Feature",
    "geometry": {
       "type": "Point",
       "coordinates":  [ -76.56521077,39.28675975 ]
    },
    "properties": {
    "Location":"3800 EASTERN AVE",
    "District":"SOUTHEAST"
    }
  },
  {
    "type": "Feature",
    "geometry": {
       "type": "Point",
       "coordinates":  [ -76.57141705,39.35587623 ]
    },
    "properties": {
    "Location":"2200 WOODBOURNE AVE",
    "District":"NORTHEAST"
    }
  },
  {
    "type": "Feature",
    "geometry": {
       "type": "Point",
       "coordinates":  [ -76.65583976,39.31949752 ]
    },
    "properties": {
    "Location":"2500 LIBERTY HEIGHTS AVE",
    "District":"NORTHWEST"
    }
  },
  {
    "type": "Feature",
    "geometry": {
       "type": "Point",
       "coordinates":  [ -76.61719382,39.30346662 ]
    },
    "properties": {
    "Location":"0 W BIDDLE ST",
    "District":"CENTRAL"
    }
  },
  {
    "type": "Feature",
    "geometry": {
       "type": "Point",
       "coordinates":  [ -76.61708491,39.31227858 ]
    },
    "properties": {
    "Location":"0 W 20TH ST",
    "District":"NORTHERN"
    }
  },
  {
    "type": "Feature",
    "geometry": {
       "type": "Point",
       "coordinates":  [ -76.57201154,39.32276288 ]
    },
    "properties": {
    "Location":"3400 BELAIR RD",
    "District":"NORTHEAST"
    }
  },
  {
    "type": "Feature",
    "geometry": {
       "type": "Point",
       "coordinates":  [ -76.64169944,39.27559762 ]
    },
    "properties": {
    "Location":"1700 WASHINGTON BLVD",
    "District":"SOUTHERN"
    }
  },
  {
    "type": "Feature",
    "geometry": {
       "type": "Point",
       "coordinates":  [ -76.61666590000002,39.30090737 ]
    },
    "properties": {
    "Location":"0 W EAGER ST",
    "District":"CENTRAL"
    }
  },
  {
    "type": "Feature",
    "geometry": {
       "type": "Point",
       "coordinates":  [ -76.63551223,39.33266913 ]
    },
    "properties": {
    "Location":"3700 FALLS RD",
    "District":"NORTHERN"
    }
  },
  {
    "type": "Feature",
    "geometry": {
       "type": "Point",
       "coordinates":  [ -76.66339374,39.29439124 ]
    },
    "properties": {
    "Location":"2800 EDMONDSON AVE",
    "District":"WESTERN"
    }
  },
  {
    "type": "Feature",
    "geometry": {
       "type": "Point",
       "coordinates":  [ -76.66268458,39.32164515 ]
    },
    "properties": {
    "Location":"2800 LIBERTY HEIGHTS AVE",
    "District":"NORTHWEST"
    }
  },
  {
    "type": "Feature",
    "geometry": {
       "type": "Point",
       "coordinates":  [ -76.61882966,39.30331393 ]
    },
    "properties": {
    "Location":"1000 PARK AVE",
    "District":"CENTRAL"
    }
  },
  {
    "type": "Feature",
    "geometry": {
       "type": "Point",
       "coordinates":  [ -76.65661591,39.31609227 ]
    },
    "properties": {
    "Location":"2500 GWYNNS FALLS PKWY",
    "District":"WESTERN"
    }
  },
  {
    "type": "Feature",
    "geometry": {
       "type": "Point",
       "coordinates":  [ -76.59774313,39.31430985 ]
    },
    "properties": {
    "Location":"2100 HARFORD RD",
    "District":"EASTERN"
    }
  },
  {
    "type": "Feature",
    "geometry": {
       "type": "Point",
       "coordinates":  [ -76.64251637,39.31014791 ]
    },
    "properties": {
    "Location":"2500 PENNSYLVANIA AVE",
    "District":"WESTERN"
    }
  },
  {
    "type": "Feature",
    "geometry": {
       "type": "Point",
       "coordinates":  [ -76.61581588,39.32699108 ]
    },
    "properties": {
    "Location":"3200 SAINT PAUL ST",
    "District":"NORTHERN"
    }
  },
  {
    "type": "Feature",
    "geometry": {
       "type": "Point",
       "coordinates":  [ -76.54162073,39.32914226 ]
    },
    "properties": {
    "Location":"5400 RADECKE AVE",
    "District":"NORTHEAST"
    }
  },
  {
    "type": "Feature",
    "geometry": {
       "type": "Point",
       "coordinates":  [ -76.61186343,39.28958208 ]
    },
    "properties": {
    "Location":"200 E BALTIMORE ST",
    "District":"CENTRAL"
    }
  },
  {
    "type": "Feature",
    "geometry": {
       "type": "Point",
       "coordinates":  [ -76.60974992,39.37053766 ]
    },
    "properties": {
    "Location":"6300 YORK RD",
    "District":"NORTHERN"
    }
  },
  {
    "type": "Feature",
    "geometry": {
       "type": "Point",
       "coordinates":  [ -76.62442133,39.29512942 ]
    },
    "properties": {
    "Location":"500 PENNSYLVANIA AVE",
    "District":"CENTRAL"
    }
  },
  {
    "type": "Feature",
    "geometry": {
       "type": "Point",
       "coordinates":  [ -76.70095019,39.28206879 ]
    },
    "properties": {
    "Location":"5100 FREDCREST RD",
    "District":"SOUTHWEST"
    }
  },
  {
    "type": "Feature",
    "geometry": {
       "type": "Point",
       "coordinates":  [ -76.55761463,39.35662835 ]
    },
    "properties": {
    "Location":"6000 HARFORD RD",
    "District":"NORTHEAST"
    }
  },
  {
    "type": "Feature",
    "geometry": {
       "type": "Point",
       "coordinates":  [ -76.62139354,39.29599015 ]
    },
    "properties": {
    "Location":"600 N EUTAW ST",
    "District":"CENTRAL"
    }
  },
  {
    "type": "Feature",
    "geometry": {
       "type": "Point",
       "coordinates":  [ -76.56486540000002,39.291565999999996 ]
    },
    "properties": {
    "Location":"3800 E LOMBARD ST",
    "District":"SOUTHEAST"
    }
  },
  {
    "type": "Feature",
    "geometry": {
       "type": "Point",
       "coordinates":  [ -76.63655466,39.33648119 ]
    },
    "properties": {
    "Location":"4000 FALLS RD",
    "District":"NORTHERN"
    }
  },
  {
    "type": "Feature",
    "geometry": {
       "type": "Point",
       "coordinates":  [ -76.70656313,39.3591977 ]
    },
    "properties": {
    "Location":"6700 REISTERSTOWN RD",
    "District":"NORTHWEST"
    }
  },
  {
    "type": "Feature",
    "geometry": {
       "type": "Point",
       "coordinates":  [ -76.55236869,39.362726200000004 ]
    },
    "properties": {
    "Location":"6600 HARFORD RD",
    "District":"NORTHEAST"
    }
  },
  {
    "type": "Feature",
    "geometry": {
       "type": "Point",
       "coordinates":  [ -76.56701004,39.3682121 ]
    },
    "properties": {
    "Location":"2300 E NORTHERN PKWY",
    "District":"NORTHEAST"
    }
  },
  {
    "type": "Feature",
    "geometry": {
       "type": "Point",
       "coordinates":  [ -76.56701004,39.3682121 ]
    },
    "properties": {
    "Location":"2300 E NORTHERN PKWY",
    "District":"NORTHEAST"
    }
  },
  {
    "type": "Feature",
    "geometry": {
       "type": "Point",
       "coordinates":  [ -76.56701004,39.3682121 ]
    },
    "properties": {
    "Location":"2300 E NORTHERN PKWY",
    "District":"NORTHEAST"
    }
  },
  {
    "type": "Feature",
    "geometry": {
       "type": "Point",
       "coordinates":  [ -76.63768171,39.30484943 ]
    },
    "properties": {
    "Location":"1300 N FREMONT AVE",
    "District":"WESTERN"
    }
  },
  {
    "type": "Feature",
    "geometry": {
       "type": "Point",
       "coordinates":  [ -76.63768171,39.30484943 ]
    },
    "properties": {
    "Location":"1300 N FREMONT AVE",
    "District":"WESTERN"
    }
  },
  {
    "type": "Feature",
    "geometry": {
       "type": "Point",
       "coordinates":  [ -76.60994747,39.35570499 ]
    },
    "properties": {
    "Location":"5400 YORK RD",
    "District":"NORTHERN"
    }
  },
  {
    "type": "Feature",
    "geometry": {
       "type": "Point",
       "coordinates":  [ -76.59329795,39.28527064 ]
    },
    "properties": {
    "Location":"500 S BROADWAY",
    "District":"SOUTHEAST"
    }
  },
  {
    "type": "Feature",
    "geometry": {
       "type": "Point",
       "coordinates":  [ -76.59360447,39.34587229 ]
    },
    "properties": {
    "Location":"1400 E COLD SPRING LN",
    "District":"NORTHEAST"
    }
  },
  {
    "type": "Feature",
    "geometry": {
       "type": "Point",
       "coordinates":  [ -76.57963082,39.280278499999994 ]
    },
    "properties": {
    "Location":"2600 BOSTON ST",
    "District":"SOUTHEAST"
    }
  },
  {
    "type": "Feature",
    "geometry": {
       "type": "Point",
       "coordinates":  [ -76.56922789,39.28886748 ]
    },
    "properties": {
    "Location":"200 S HIGHLAND AVE",
    "District":"SOUTHEAST"
    }
  },
  {
    "type": "Feature",
    "geometry": {
       "type": "Point",
       "coordinates":  [ -76.63260518,39.28872516 ]
    },
    "properties": {
    "Location":"900 W BALTIMORE ST",
    "District":"WESTERN"
    }
  },
  {
    "type": "Feature",
    "geometry": {
       "type": "Point",
       "coordinates":  [ -76.67430838,39.28131968 ]
    },
    "properties": {
    "Location":"3400 FREDERICK AVE",
    "District":"SOUTHWEST"
    }
  },
  {
    "type": "Feature",
    "geometry": {
       "type": "Point",
       "coordinates":  [ -76.60179676,39.34310676 ]
    },
    "properties": {
    "Location":"900 E 43RD ST",
    "District":"NORTHERN"
    }
  },
  {
    "type": "Feature",
    "geometry": {
       "type": "Point",
       "coordinates":  [ -76.60029707,39.31195821 ]
    },
    "properties": {
    "Location":"1300 E NORTH AVE",
    "District":"EASTERN"
    }
  },
  {
    "type": "Feature",
    "geometry": {
       "type": "Point",
       "coordinates":  [ -76.68287314,39.34239746 ]
    },
    "properties": {
    "Location":"5100 REISTERSTOWN RD",
    "District":"NORTHWEST"
    }
  },
  {
    "type": "Feature",
    "geometry": {
       "type": "Point",
       "coordinates":  [ -76.54314652,39.30315848 ]
    },
    "properties": {
    "Location":"6200 PULASKI HWY",
    "District":"NORTHEAST"
    }
  },
  {
    "type": "Feature",
    "geometry": {
       "type": "Point",
       "coordinates":  [ -76.62843529,39.28905777 ]
    },
    "properties": {
    "Location":"700 W BALTIMORE ST",
    "District":"WESTERN"
    }
  },
  {
    "type": "Feature",
    "geometry": {
       "type": "Point",
       "coordinates":  [ -76.65370767,39.3018097 ]
    },
    "properties": {
    "Location":"2300 WINCHESTER ST",
    "District":"WESTERN"
    }
  },
  {
    "type": "Feature",
    "geometry": {
       "type": "Point",
       "coordinates":  [ -76.63608093,39.31462414 ]
    },
    "properties": {
    "Location":"2400 LINDEN AVE",
    "District":"CENTRAL"
    }
  },
  {
    "type": "Feature",
    "geometry": {
       "type": "Point",
       "coordinates":  [ -76.61100146,39.32817393 ]
    },
    "properties": {
    "Location":"400 E 33RD ST",
    "District":"NORTHERN"
    }
  },
  {
    "type": "Feature",
    "geometry": {
       "type": "Point",
       "coordinates":  [ -76.62843529,39.28905777 ]
    },
    "properties": {
    "Location":"700 W BALTIMORE ST",
    "District":"WESTERN"
    }
  },
  {
    "type": "Feature",
    "geometry": {
       "type": "Point",
       "coordinates":  [ -76.58304849,39.36672109 ]
    },
    "properties": {
    "Location":"1700 E NORTHERN PKWY",
    "District":"NORTHEAST"
    }
  },
  {
    "type": "Feature",
    "geometry": {
       "type": "Point",
       "coordinates":  [ -76.63519438,39.28579001 ]
    },
    "properties": {
    "Location":"1100 W PRATT ST",
    "District":"SOUTHERN"
    }
  },
  {
    "type": "Feature",
    "geometry": {
       "type": "Point",
       "coordinates":  [ -76.61520339,39.28958439 ]
    },
    "properties": {
    "Location":"0 N CHARLES ST",
    "District":"CENTRAL"
    }
  },
  {
    "type": "Feature",
    "geometry": {
       "type": "Point",
       "coordinates":  [ -76.61237925,39.29011059 ]
    },
    "properties": {
    "Location":"0 N CALVERT ST",
    "District":"CENTRAL"
    }
  },
  {
    "type": "Feature",
    "geometry": {
       "type": "Point",
       "coordinates":  [ -76.64124938,39.29207837 ]
    },
    "properties": {
    "Location":"1500 W SARATOGA ST",
    "District":"WESTERN"
    }
  },
  {
    "type": "Feature",
    "geometry": {
       "type": "Point",
       "coordinates":  [ -76.55155090000001,39.36386368 ]
    },
    "properties": {
    "Location":"6700 HARFORD RD",
    "District":"NORTHEAST"
    }
  },
  {
    "type": "Feature",
    "geometry": {
       "type": "Point",
       "coordinates":  [ -76.6140538,39.2983921 ]
    },
    "properties": {
    "Location":"700 SAINT PAUL ST",
    "District":"CENTRAL"
    }
  },
  {
    "type": "Feature",
    "geometry": {
       "type": "Point",
       "coordinates":  [ -76.61431826,39.3025029 ]
    },
    "properties": {
    "Location":"1100 SAINT PAUL ST",
    "District":"CENTRAL"
    }
  },
  {
    "type": "Feature",
    "geometry": {
       "type": "Point",
       "coordinates":  [ -76.58899307,39.365188 ]
    },
    "properties": {
    "Location":"1300 SHERWOOD AVE",
    "District":"NORTHEAST"
    }
  },
  {
    "type": "Feature",
    "geometry": {
       "type": "Point",
       "coordinates":  [ -76.65194578,39.34380374 ]
    },
    "properties": {
    "Location":"2200 W COLD SPRING LN",
    "District":"NORTHERN"
    }
  },
  {
    "type": "Feature",
    "geometry": {
       "type": "Point",
       "coordinates":  [ -76.62083043,39.3204013 ]
    },
    "properties": {
    "Location":"2700 REMINGTON AVE",
    "District":"NORTHERN"
    }
  },
  {
    "type": "Feature",
    "geometry": {
       "type": "Point",
       "coordinates":  [ -76.62115247,39.29194122 ]
    },
    "properties": {
    "Location":"200 N EUTAW ST",
    "District":"CENTRAL"
    }
  },
  {
    "type": "Feature",
    "geometry": {
       "type": "Point",
       "coordinates":  [ -76.60961723,39.34909299 ]
    },
    "properties": {
    "Location":"5000 YORK RD",
    "District":"NORTHERN"
    }
  },
  {
    "type": "Feature",
    "geometry": {
       "type": "Point",
       "coordinates":  [ -76.63320103,39.30245058 ]
    },
    "properties": {
    "Location":"1500 PENNSYLVANIA AVE",
    "District":"CENTRAL"
    }
  },
  {
    "type": "Feature",
    "geometry": {
       "type": "Point",
       "coordinates":  [ -76.64698269,39.25136404 ]
    },
    "properties": {
    "Location":"3200 HOLLINS FERRY RD",
    "District":"SOUTHERN"
    }
  },
  {
    "type": "Feature",
    "geometry": {
       "type": "Point",
       "coordinates":  [ -76.61732741,39.25448454 ]
    },
    "properties": {
    "Location":"2800 S HANOVER ST",
    "District":"SOUTHERN"
    }
  },
  {
    "type": "Feature",
    "geometry": {
       "type": "Point",
       "coordinates":  [ -76.59445107,39.35965989 ]
    },
    "properties": {
    "Location":"5600 THE ALAMEDA",
    "District":"NORTHERN"
    }
  },
  {
    "type": "Feature",
    "geometry": {
       "type": "Point",
       "coordinates":  [ -76.60226565,39.28915203 ]
    },
    "properties": {
    "Location":"1000 E LOMBARD ST",
    "District":"SOUTHEAST"
    }
  },
  {
    "type": "Feature",
    "geometry": {
       "type": "Point",
       "coordinates":  [ -76.69912237,39.35382435 ]
    },
    "properties": {
    "Location":"6200 REISTERSTOWN RD",
    "District":"NORTHWEST"
    }
  },
  {
    "type": "Feature",
    "geometry": {
       "type": "Point",
       "coordinates":  [ -76.60101169,39.27146281 ]
    },
    "properties": {
    "Location":"900 E FORT AVE",
    "District":"SOUTHERN"
    }
  },
  {
    "type": "Feature",
    "geometry": {
       "type": "Point",
       "coordinates":  [ -76.61956251,39.29238643 ]
    },
    "properties": {
    "Location":"200 N HOWARD ST",
    "District":"CENTRAL"
    }
  },
  {
    "type": "Feature",
    "geometry": {
       "type": "Point",
       "coordinates":  [ -76.5708024,39.28639984 ]
    },
    "properties": {
    "Location":"3200 EASTERN AVE",
    "District":"SOUTHEAST"
    }
  },
  {
    "type": "Feature",
    "geometry": {
       "type": "Point",
       "coordinates":  [ -76.57201154,39.32276288 ]
    },
    "properties": {
    "Location":"3400 BELAIR RD",
    "District":"NORTHEAST"
    }
  },
  {
    "type": "Feature",
    "geometry": {
       "type": "Point",
       "coordinates":  [ -76.54314652,39.30315848 ]
    },
    "properties": {
    "Location":"6200 PULASKI HWY",
    "District":"NORTHEAST"
    }
  },
  {
    "type": "Feature",
    "geometry": {
       "type": "Point",
       "coordinates":  [ -76.61696289,39.31649123 ]
    },
    "properties": {
    "Location":"2400 N CHARLES ST",
    "District":"NORTHERN"
    }
  },
  {
    "type": "Feature",
    "geometry": {
       "type": "Point",
       "coordinates":  [ -76.62792212,39.28295335 ]
    },
    "properties": {
    "Location":"700 WASHINGTON BLVD",
    "District":"SOUTHERN"
    }
  },
  {
    "type": "Feature",
    "geometry": {
       "type": "Point",
       "coordinates":  [ -76.54546985,39.34234671 ]
    },
    "properties": {
    "Location":"5700 BELAIR RD",
    "District":"NORTHEAST"
    }
  },
  {
    "type": "Feature",
    "geometry": {
       "type": "Point",
       "coordinates":  [ -76.5967114,39.32333649 ]
    },
    "properties": {
    "Location":"1500 CARSWELL ST",
    "District":"NORTHEAST"
    }
  },
  {
    "type": "Feature",
    "geometry": {
       "type": "Point",
       "coordinates":  [ -76.55558461,39.28713697 ]
    },
    "properties": {
    "Location":"4800 EASTERN AVE",
    "District":"SOUTHEAST"
    }
  },
  {
    "type": "Feature",
    "geometry": {
       "type": "Point",
       "coordinates":  [ -76.60827302,39.31203184 ]
    },
    "properties": {
    "Location":"1900 BOONE ST",
    "District":"EASTERN"
    }
  },
  {
    "type": "Feature",
    "geometry": {
       "type": "Point",
       "coordinates":  [ -76.61539502,39.29236268 ]
    },
    "properties": {
    "Location":"300 N CHARLES ST",
    "District":"CENTRAL"
    }
  },
  {
    "type": "Feature",
    "geometry": {
       "type": "Point",
       "coordinates":  [ -76.62784386,39.30729831 ]
    },
    "properties": {
    "Location":"200 MCMECHEN ST",
    "District":"CENTRAL"
    }
  },
  {
    "type": "Feature",
    "geometry": {
       "type": "Point",
       "coordinates":  [ -76.57007258,39.31791163 ]
    },
    "properties": {
    "Location":"3400 JUNEWAY",
    "District":"NORTHEAST"
    }
  },
  {
    "type": "Feature",
    "geometry": {
       "type": "Point",
       "coordinates":  [ -76.58216095,39.30789762 ]
    },
    "properties": {
    "Location":"2500 E OLIVER ST",
    "District":"EASTERN"
    }
  },
  {
    "type": "Feature",
    "geometry": {
       "type": "Point",
       "coordinates":  [ -76.64215361,39.2752598 ]
    },
    "properties": {
    "Location":"1800 WASHINGTON BLVD",
    "District":"SOUTHERN"
    }
  },
  {
    "type": "Feature",
    "geometry": {
       "type": "Point",
       "coordinates":  [ -76.67559792,39.31084288 ]
    },
    "properties": {
    "Location":"3400 CLIFTON AVE",
    "District":"SOUTHWEST"
    }
  },
  {
    "type": "Feature",
    "geometry": {
       "type": "Point",
       "coordinates":  [ -76.55603141,39.35847736 ]
    },
    "properties": {
    "Location":"6100 HARFORD RD",
    "District":"NORTHEAST"
    }
  },
  {
    "type": "Feature",
    "geometry": {
       "type": "Point",
       "coordinates":  [ -76.53448381,39.34081362 ]
    },
    "properties": {
    "Location":"4800 BAYONNE AVE",
    "District":"NORTHEAST"
    }
  },
  {
    "type": "Feature",
    "geometry": {
       "type": "Point",
       "coordinates":  [ -76.56625736,39.28555972 ]
    },
    "properties": {
    "Location":"3700 FLEET ST",
    "District":"SOUTHEAST"
    }
  },
  {
    "type": "Feature",
    "geometry": {
       "type": "Point",
       "coordinates":  [ -76.56225197,39.35127583 ]
    },
    "properties": {
    "Location":"5400 HARFORD RD",
    "District":"NORTHEAST"
    }
  },
  {
    "type": "Feature",
    "geometry": {
       "type": "Point",
       "coordinates":  [ -76.62142937,39.32258727 ]
    },
    "properties": {
    "Location":"200 W 29TH ST",
    "District":"NORTHERN"
    }
  },
  {
    "type": "Feature",
    "geometry": {
       "type": "Point",
       "coordinates":  [ -76.61539502,39.29236268 ]
    },
    "properties": {
    "Location":"300 N CHARLES ST",
    "District":"CENTRAL"
    }
  },
  {
    "type": "Feature",
    "geometry": {
       "type": "Point",
       "coordinates":  [ -76.61100146,39.32817393 ]
    },
    "properties": {
    "Location":"400 E 33RD ST",
    "District":"NORTHERN"
    }
  },
  {
    "type": "Feature",
    "geometry": {
       "type": "Point",
       "coordinates":  [ -76.60940511,39.31840305 ]
    },
    "properties": {
    "Location":"2500 GREENMOUNT AVE",
    "District":"NORTHERN"
    }
  },
  {
    "type": "Feature",
    "geometry": {
       "type": "Point",
       "coordinates":  [ -76.62802201,39.33217704 ]
    },
    "properties": {
    "Location":"3600 KESWICK RD",
    "District":"NORTHERN"
    }
  },
  {
    "type": "Feature",
    "geometry": {
       "type": "Point",
       "coordinates":  [ -76.62802201,39.33217704 ]
    },
    "properties": {
    "Location":"3600 KESWICK RD",
    "District":"NORTHERN"
    }
  },
  {
    "type": "Feature",
    "geometry": {
       "type": "Point",
       "coordinates":  [ -76.57047708,39.29584559 ]
    },
    "properties": {
    "Location":"3300 PULASKI HWY",
    "District":"SOUTHEAST"
    }
  },
  {
    "type": "Feature",
    "geometry": {
       "type": "Point",
       "coordinates":  [ -76.60981381,39.35181794 ]
    },
    "properties": {
    "Location":"5200 YORK RD",
    "District":"NORTHERN"
    }
  },
  {
    "type": "Feature",
    "geometry": {
       "type": "Point",
       "coordinates":  [ -76.5411956,39.3357401 ]
    },
    "properties": {
    "Location":"5600 KNELL AVE",
    "District":"NORTHEAST"
    }
  },
  {
    "type": "Feature",
    "geometry": {
       "type": "Point",
       "coordinates":  [ -76.56738726,39.27698228 ]
    },
    "properties": {
    "Location":"3500 BOSTON ST",
    "District":"SOUTHEAST"
    }
  },
  {
    "type": "Feature",
    "geometry": {
       "type": "Point",
       "coordinates":  [ -76.65580529,39.28338853 ]
    },
    "properties": {
    "Location":"2400 FREDERICK AVE",
    "District":"SOUTHWEST"
    }
  },
  {
    "type": "Feature",
    "geometry": {
       "type": "Point",
       "coordinates":  [ -76.61972129,39.30141451 ]
    },
    "properties": {
    "Location":"200 W CHASE ST",
    "District":"CENTRAL"
    }
  },
  {
    "type": "Feature",
    "geometry": {
       "type": "Point",
       "coordinates":  [ -76.64411955,39.25080189 ]
    },
    "properties": {
    "Location":"2100 W PATAPSCO AVE",
    "District":"SOUTHERN"
    }
  },
  {
    "type": "Feature",
    "geometry": {
       "type": "Point",
       "coordinates":  [ -76.57204483,39.32274102 ]
    },
    "properties": {
    "Location":"3400 BELAIR RD",
    "District":"NORTHEAST"
    }
  },
  {
    "type": "Feature",
    "geometry": {
       "type": "Point",
       "coordinates":  [ -76.53680805,39.34925469 ]
    },
    "properties": {
    "Location":"6100 BELAIR RD",
    "District":"NORTHEAST"
    }
  },
  {
    "type": "Feature",
    "geometry": {
       "type": "Point",
       "coordinates":  [ -76.56362045,39.29699471 ]
    },
    "properties": {
    "Location":"4000 PULASKI HWY",
    "District":"EASTERN"
    }
  },
  {
    "type": "Feature",
    "geometry": {
       "type": "Point",
       "coordinates":  [ -76.6038573,39.31824879 ]
    },
    "properties": {
    "Location":"700 E 25TH ST",
    "District":"NORTHEAST"
    }
  },
  {
    "type": "Feature",
    "geometry": {
       "type": "Point",
       "coordinates":  [ -76.633778,39.288757000000004 ]
    },
    "properties": {
    "Location":"0 N SCHROEDER ST",
    "District":"WESTERN"
    }
  },
  {
    "type": "Feature",
    "geometry": {
       "type": "Point",
       "coordinates":  [ -76.56625736,39.28555972 ]
    },
    "properties": {
    "Location":"3700 FLEET ST",
    "District":"SOUTHEAST"
    }
  },
  {
    "type": "Feature",
    "geometry": {
       "type": "Point",
       "coordinates":  [ -76.5690292,39.34279614 ]
    },
    "properties": {
    "Location":"4600 HARFORD RD",
    "District":"NORTHEAST"
    }
  },
  {
    "type": "Feature",
    "geometry": {
       "type": "Point",
       "coordinates":  [ -76.63806238,39.24774565 ]
    },
    "properties": {
    "Location":"1400 W PATAPSCO AVE",
    "District":"SOUTHERN"
    }
  },
  {
    "type": "Feature",
    "geometry": {
       "type": "Point",
       "coordinates":  [ -76.63754204,39.27887159 ]
    },
    "properties": {
    "Location":"1400 WASHINGTON BLVD",
    "District":"SOUTHERN"
    }
  },
  {
    "type": "Feature",
    "geometry": {
       "type": "Point",
       "coordinates":  [ -76.57204483,39.32274102 ]
    },
    "properties": {
    "Location":"3400 BELAIR RD",
    "District":"NORTHEAST"
    }
  },
  {
    "type": "Feature",
    "geometry": {
       "type": "Point",
       "coordinates":  [ -76.58931125,39.29526124 ]
    },
    "properties": {
    "Location":"2000 ORLEANS ST",
    "District":"EASTERN"
    }
  },
  {
    "type": "Feature",
    "geometry": {
       "type": "Point",
       "coordinates":  [ -76.63570091,39.29526988 ]
    },
    "properties": {
    "Location":"500 N ARLINGTON AVE",
    "District":"WESTERN"
    }
  },
  {
    "type": "Feature",
    "geometry": {
       "type": "Point",
       "coordinates":  [ -76.70749312,39.35991501 ]
    },
    "properties": {
    "Location":"6800 REISTERSTOWN RD",
    "District":"NORTHWEST"
    }
  },
  {
    "type": "Feature",
    "geometry": {
       "type": "Point",
       "coordinates":  [ -76.61592749,39.30253587 ]
    },
    "properties": {
    "Location":"1100 N CHARLES ST",
    "District":"CENTRAL"
    }
  },
  {
    "type": "Feature",
    "geometry": {
       "type": "Point",
       "coordinates":  [ -76.65523144,39.28376742 ]
    },
    "properties": {
    "Location":"2400 FREDERICK AVE",
    "District":"SOUTHWEST"
    }
  },
  {
    "type": "Feature",
    "geometry": {
       "type": "Point",
       "coordinates":  [ -76.70268479,39.35592915 ]
    },
    "properties": {
    "Location":"4100 PATTERSON AVE",
    "District":"NORTHWEST"
    }
  },
  {
    "type": "Feature",
    "geometry": {
       "type": "Point",
       "coordinates":  [ -76.56487771,39.29156573 ]
    },
    "properties": {
    "Location":"3800 E LOMBARD ST",
    "District":"SOUTHEAST"
    }
  },
  {
    "type": "Feature",
    "geometry": {
       "type": "Point",
       "coordinates":  [ -76.66662966,39.26179315 ]
    },
    "properties": {
    "Location":"1400 BLOOMFIELD AVE",
    "District":"SOUTHWEST"
    }
  },
  {
    "type": "Feature",
    "geometry": {
       "type": "Point",
       "coordinates":  [ -76.70140833,39.34478318 ]
    },
    "properties": {
    "Location":"4600 W NORTHERN PKWY",
    "District":"NORTHWEST"
    }
  },
  {
    "type": "Feature",
    "geometry": {
       "type": "Point",
       "coordinates":  [ -76.57311181,39.30976994 ]
    },
    "properties": {
    "Location":"1600 EDISON HWY",
    "District":"EASTERN"
    }
  },
  {
    "type": "Feature",
    "geometry": {
       "type": "Point",
       "coordinates":  [ -76.61209924,39.28957552 ]
    },
    "properties": {
    "Location":"200 E BALTIMORE ST",
    "District":"CENTRAL"
    }
  },
  {
    "type": "Feature",
    "geometry": {
       "type": "Point",
       "coordinates":  [ -76.58121249,39.28125097 ]
    },
    "properties": {
    "Location":"2500 BOSTON ST",
    "District":"SOUTHEAST"
    }
  },
  {
    "type": "Feature",
    "geometry": {
       "type": "Point",
       "coordinates":  [ -76.61265755,39.27883739 ]
    },
    "properties": {
    "Location":"900 LIGHT ST",
    "District":"SOUTHERN"
    }
  },
  {
    "type": "Feature",
    "geometry": {
       "type": "Point",
       "coordinates":  [ -76.67498088,39.27271286 ]
    },
    "properties": {
    "Location":"3400 WILKENS AVE",
    "District":"SOUTHWEST"
    }
  },
  {
    "type": "Feature",
    "geometry": {
       "type": "Point",
       "coordinates":  [ -76.64104624,39.28835182 ]
    },
    "properties": {
    "Location":"1500 W BALTIMORE ST",
    "District":"WESTERN"
    }
  },
  {
    "type": "Feature",
    "geometry": {
       "type": "Point",
       "coordinates":  [ -76.53766348,39.34866796 ]
    },
    "properties": {
    "Location":"6100 BELAIR RD",
    "District":"NORTHEAST"
    }
  },
  {
    "type": "Feature",
    "geometry": {
       "type": "Point",
       "coordinates":  [ -76.63228594,39.29510666 ]
    },
    "properties": {
    "Location":"900 BENNETT PL",
    "District":"WESTERN"
    }
  },
  {
    "type": "Feature",
    "geometry": {
       "type": "Point",
       "coordinates":  [ -76.56244557,39.35104235 ]
    },
    "properties": {
    "Location":"5400 HARFORD RD",
    "District":"NORTHEAST"
    }
  },
  {
    "type": "Feature",
    "geometry": {
       "type": "Point",
       "coordinates":  [ -76.59360447,39.34587229 ]
    },
    "properties": {
    "Location":"1400 E COLD SPRING LN",
    "District":"NORTHEAST"
    }
  },
  {
    "type": "Feature",
    "geometry": {
       "type": "Point",
       "coordinates":  [ -76.59127866,39.34025437 ]
    },
    "properties": {
    "Location":"1600 ARGONNE DR",
    "District":"NORTHEAST"
    }
  },
  {
    "type": "Feature",
    "geometry": {
       "type": "Point",
       "coordinates":  [ -76.70140833,39.34478318 ]
    },
    "properties": {
    "Location":"4600 W NORTHERN PKWY",
    "District":"NORTHWEST"
    }
  },
  {
    "type": "Feature",
    "geometry": {
       "type": "Point",
       "coordinates":  [ -76.61882966,39.30331393 ]
    },
    "properties": {
    "Location":"1000 PARK AVE",
    "District":"CENTRAL"
    }
  },
  {
    "type": "Feature",
    "geometry": {
       "type": "Point",
       "coordinates":  [ -76.60837611,39.32824311 ]
    },
    "properties": {
    "Location":"600 E 33RD ST",
    "District":"NORTHERN"
    }
  },
  {
    "type": "Feature",
    "geometry": {
       "type": "Point",
       "coordinates":  [ -76.60940511,39.31840305 ]
    },
    "properties": {
    "Location":"2500 GREENMOUNT AVE",
    "District":"NORTHERN"
    }
  },
  {
    "type": "Feature",
    "geometry": {
       "type": "Point",
       "coordinates":  [ -76.67508356,39.34847577 ]
    },
    "properties": {
    "Location":"5100 PARK HEIGHTS AVE",
    "District":"NORTHWEST"
    }
  },
  {
    "type": "Feature",
    "geometry": {
       "type": "Point",
       "coordinates":  [ -76.62461726,39.27528839 ]
    },
    "properties": {
    "Location":"1400 WARNER ST",
    "District":"SOUTHERN"
    }
  },
  {
    "type": "Feature",
    "geometry": {
       "type": "Point",
       "coordinates":  [ -76.61018935,39.23737652 ]
    },
    "properties": {
    "Location":"3700 S HANOVER ST",
    "District":"SOUTHERN"
    }
  },
  {
    "type": "Feature",
    "geometry": {
       "type": "Point",
       "coordinates":  [ -76.58572621,39.29877014 ]
    },
    "properties": {
    "Location":"2200 E MONUMENT ST",
    "District":"EASTERN"
    }
  },
  {
    "type": "Feature",
    "geometry": {
       "type": "Point",
       "coordinates":  [ -76.67074852,39.30887531 ]
    },
    "properties": {
    "Location":"3100 W NORTH AVE",
    "District":"SOUTHWEST"
    }
  },
  {
    "type": "Feature",
    "geometry": {
       "type": "Point",
       "coordinates":  [ -76.58756147,39.29548007 ]
    },
    "properties": {
    "Location":"2100 ORLEANS ST",
    "District":"EASTERN"
    }
  },
  {
    "type": "Feature",
    "geometry": {
       "type": "Point",
       "coordinates":  [ -76.58756147,39.29548007 ]
    },
    "properties": {
    "Location":"2100 ORLEANS ST",
    "District":"EASTERN"
    }
  },
  {
    "type": "Feature",
    "geometry": {
       "type": "Point",
       "coordinates":  [ -76.68150727,39.34529668 ]
    },
    "properties": {
    "Location":"3800 W BELVEDERE AVE",
    "District":"NORTHWEST"
    }
  },
  {
    "type": "Feature",
    "geometry": {
       "type": "Point",
       "coordinates":  [ -76.67430838,39.28131968 ]
    },
    "properties": {
    "Location":"3400 FREDERICK AVE",
    "District":"SOUTHWEST"
    }
  },
  {
    "type": "Feature",
    "geometry": {
       "type": "Point",
       "coordinates":  [ -76.53989808,39.28780359 ]
    },
    "properties": {
    "Location":"6300 EASTERN AVE",
    "District":"SOUTHEAST"
    }
  },
  {
    "type": "Feature",
    "geometry": {
       "type": "Point",
       "coordinates":  [ -76.66662966,39.26179315 ]
    },
    "properties": {
    "Location":"1400 BLOOMFIELD AVE",
    "District":"SOUTHWEST"
    }
  },
  {
    "type": "Feature",
    "geometry": {
       "type": "Point",
       "coordinates":  [ -76.5871027,39.29857447 ]
    },
    "properties": {
    "Location":"2100 E MONUMENT ST",
    "District":"EASTERN"
    }
  },
  {
    "type": "Feature",
    "geometry": {
       "type": "Point",
       "coordinates":  [ -76.63228594,39.29510666 ]
    },
    "properties": {
    "Location":"900 BENNETT PL",
    "District":"WESTERN"
    }
  },
  {
    "type": "Feature",
    "geometry": {
       "type": "Point",
       "coordinates":  [ -76.70068239,39.33305425 ]
    },
    "properties": {
    "Location":"5100 LIBERTY HEIGHTS AVE",
    "District":"NORTHWEST"
    }
  },
  {
    "type": "Feature",
    "geometry": {
       "type": "Point",
       "coordinates":  [ -76.54546985,39.34234671 ]
    },
    "properties": {
    "Location":"5700 BELAIR RD",
    "District":"NORTHEAST"
    }
  },
  {
    "type": "Feature",
    "geometry": {
       "type": "Point",
       "coordinates":  [ -76.63570091,39.29526988 ]
    },
    "properties": {
    "Location":"500 N ARLINGTON AVE",
    "District":"WESTERN"
    }
  },
  {
    "type": "Feature",
    "geometry": {
       "type": "Point",
       "coordinates":  [ -76.60940511,39.31840305 ]
    },
    "properties": {
    "Location":"2500 GREENMOUNT AVE",
    "District":"NORTHERN"
    }
  },
  {
    "type": "Feature",
    "geometry": {
       "type": "Point",
       "coordinates":  [ -76.5649208,39.29156481 ]
    },
    "properties": {
    "Location":"3800 E LOMBARD ST",
    "District":"SOUTHEAST"
    }
  },
  {
    "type": "Feature",
    "geometry": {
       "type": "Point",
       "coordinates":  [ -76.57275483,39.29804217 ]
    },
    "properties": {
    "Location":"3100 MCELDERRY ST",
    "District":"SOUTHEAST"
    }
  },
  {
    "type": "Feature",
    "geometry": {
       "type": "Point",
       "coordinates":  [ -76.60807587,39.29315041 ]
    },
    "properties": {
    "Location":"200 N GAY ST",
    "District":"EASTERN"
    }
  },
  {
    "type": "Feature",
    "geometry": {
       "type": "Point",
       "coordinates":  [ -76.57209716,39.32269772 ]
    },
    "properties": {
    "Location":"3400 BELAIR RD",
    "District":"NORTHEAST"
    }
  },
  {
    "type": "Feature",
    "geometry": {
       "type": "Point",
       "coordinates":  [ -76.67753975,39.29407663 ]
    },
    "properties": {
    "Location":"3600 EDMONDSON AVE",
    "District":"SOUTHWEST"
    }
  },
  {
    "type": "Feature",
    "geometry": {
       "type": "Point",
       "coordinates":  [ -76.67544772,39.33593865 ]
    },
    "properties": {
    "Location":"3600 W COLD SPRING LN",
    "District":"NORTHWEST"
    }
  },
  {
    "type": "Feature",
    "geometry": {
       "type": "Point",
       "coordinates":  [ -76.59850407,39.29298381 ]
    },
    "properties": {
    "Location":"1400 E FAYETTE ST",
    "District":"SOUTHEAST"
    }
  },
  {
    "type": "Feature",
    "geometry": {
       "type": "Point",
       "coordinates":  [ -76.5871027,39.29857447 ]
    },
    "properties": {
    "Location":"2100 E MONUMENT ST",
    "District":"EASTERN"
    }
  },
  {
    "type": "Feature",
    "geometry": {
       "type": "Point",
       "coordinates":  [ -76.55838935,39.35592787 ]
    },
    "properties": {
    "Location":"5900 HARFORD RD",
    "District":"NORTHEAST"
    }
  },
  {
    "type": "Feature",
    "geometry": {
       "type": "Point",
       "coordinates":  [ -76.60771899,39.28680578 ]
    },
    "properties": {
    "Location":"600 E PRATT ST",
    "District":"CENTRAL"
    }
  },
  {
    "type": "Feature",
    "geometry": {
       "type": "Point",
       "coordinates":  [ -76.54952328,39.36619187 ]
    },
    "properties": {
    "Location":"6900 HARFORD RD",
    "District":"NORTHEAST"
    }
  },
  {
    "type": "Feature",
    "geometry": {
       "type": "Point",
       "coordinates":  [ -76.65398558,39.31863125 ]
    },
    "properties": {
    "Location":"2400 LIBERTY HEIGHTS AVE",
    "District":"WESTERN"
    }
  },
  {
    "type": "Feature",
    "geometry": {
       "type": "Point",
       "coordinates":  [ -76.61186343,39.28958208 ]
    },
    "properties": {
    "Location":"200 E BALTIMORE ST",
    "District":"CENTRAL"
    }
  },
  {
    "type": "Feature",
    "geometry": {
       "type": "Point",
       "coordinates":  [ -76.56642999,39.34662875 ]
    },
    "properties": {
    "Location":"4900 HARFORD RD",
    "District":"NORTHEAST"
    }
  },
  {
    "type": "Feature",
    "geometry": {
       "type": "Point",
       "coordinates":  [ -76.61374215,39.28843148 ]
    },
    "properties": {
    "Location":"0 LIGHT ST",
    "District":"CENTRAL"
    }
  },
  {
    "type": "Feature",
    "geometry": {
       "type": "Point",
       "coordinates":  [ -76.61374215,39.28843148 ]
    },
    "properties": {
    "Location":"0 LIGHT ST",
    "District":"CENTRAL"
    }
  },
  {
    "type": "Feature",
    "geometry": {
       "type": "Point",
       "coordinates":  [ -76.66363564,39.29452911 ]
    },
    "properties": {
    "Location":"2800 EDMONDSON AVE",
    "District":"WESTERN"
    }
  },
  {
    "type": "Feature",
    "geometry": {
       "type": "Point",
       "coordinates":  [ -76.61226427,39.29011943 ]
    },
    "properties": {
    "Location":"0 N CALVERT ST",
    "District":"CENTRAL"
    }
  },
  {
    "type": "Feature",
    "geometry": {
       "type": "Point",
       "coordinates":  [ -76.63462022,39.30342931 ]
    },
    "properties": {
    "Location":"1600 PENNSYLVANIA AVE",
    "District":"CENTRAL"
    }
  },
  {
    "type": "Feature",
    "geometry": {
       "type": "Point",
       "coordinates":  [ -76.63042581,39.27203241 ]
    },
    "properties": {
    "Location":"1800 RUSSELL ST",
    "District":"SOUTHERN"
    }
  },
  {
    "type": "Feature",
    "geometry": {
       "type": "Point",
       "coordinates":  [ -76.60291646,39.31842788 ]
    },
    "properties": {
    "Location":"700 E 25TH ST",
    "District":"NORTHEAST"
    }
  },
  {
    "type": "Feature",
    "geometry": {
       "type": "Point",
       "coordinates":  [ -76.54755156,39.34104912 ]
    },
    "properties": {
    "Location":"5600 BELAIR RD",
    "District":"NORTHEAST"
    }
  },
  {
    "type": "Feature",
    "geometry": {
       "type": "Point",
       "coordinates":  [ -76.61565042,39.27771273 ]
    },
    "properties": {
    "Location":"1000 S HANOVER ST",
    "District":"SOUTHERN"
    }
  },
  {
    "type": "Feature",
    "geometry": {
       "type": "Point",
       "coordinates":  [ -76.67559792,39.31084288 ]
    },
    "properties": {
    "Location":"3400 CLIFTON AVE",
    "District":"SOUTHWEST"
    }
  },
  {
    "type": "Feature",
    "geometry": {
       "type": "Point",
       "coordinates":  [ -76.60940511,39.31840305 ]
    },
    "properties": {
    "Location":"2500 GREENMOUNT AVE",
    "District":"NORTHERN"
    }
  },
  {
    "type": "Feature",
    "geometry": {
       "type": "Point",
       "coordinates":  [ -76.67430838,39.28131968 ]
    },
    "properties": {
    "Location":"3400 FREDERICK AVE",
    "District":"SOUTHWEST"
    }
  },
  {
    "type": "Feature",
    "geometry": {
       "type": "Point",
       "coordinates":  [ -76.61972129,39.30141451 ]
    },
    "properties": {
    "Location":"200 W CHASE ST",
    "District":"CENTRAL"
    }
  },
  {
    "type": "Feature",
    "geometry": {
       "type": "Point",
       "coordinates":  [ -76.67430838,39.28131968 ]
    },
    "properties": {
    "Location":"3400 FREDERICK AVE",
    "District":"SOUTHWEST"
    }
  },
  {
    "type": "Feature",
    "geometry": {
       "type": "Point",
       "coordinates":  [ -76.65652336,39.3160898 ]
    },
    "properties": {
    "Location":"2500 GWYNNS FALLS PKWY",
    "District":"WESTERN"
    }
  },
  {
    "type": "Feature",
    "geometry": {
       "type": "Point",
       "coordinates":  [ -76.63570091,39.29526988 ]
    },
    "properties": {
    "Location":"500 N ARLINGTON AVE",
    "District":"WESTERN"
    }
  },
  {
    "type": "Feature",
    "geometry": {
       "type": "Point",
       "coordinates":  [ -76.6814578,39.27027679 ]
    },
    "properties": {
    "Location":"3700 WILKENS AVE",
    "District":"SOUTHWEST"
    }
  },
  {
    "type": "Feature",
    "geometry": {
       "type": "Point",
       "coordinates":  [ -76.61539502,39.29236268 ]
    },
    "properties": {
    "Location":"300 N CHARLES ST",
    "District":"CENTRAL"
    }
  },
  {
    "type": "Feature",
    "geometry": {
       "type": "Point",
       "coordinates":  [ -76.54276943,39.34438956 ]
    },
    "properties": {
    "Location":"5800 BELAIR RD",
    "District":"NORTHEAST"
    }
  },
  {
    "type": "Feature",
    "geometry": {
       "type": "Point",
       "coordinates":  [ -76.70765250000001,39.28102138 ]
    },
    "properties": {
    "Location":"200 STONECROFT RD",
    "District":"SOUTHWEST"
    }
  },
  {
    "type": "Feature",
    "geometry": {
       "type": "Point",
       "coordinates":  [ -76.60771899,39.28680578 ]
    },
    "properties": {
    "Location":"600 E PRATT ST",
    "District":"CENTRAL"
    }
  },
  {
    "type": "Feature",
    "geometry": {
       "type": "Point",
       "coordinates":  [ -76.61941786,39.29005085 ]
    },
    "properties": {
    "Location":"0 N HOWARD ST",
    "District":"CENTRAL"
    }
  },
  {
    "type": "Feature",
    "geometry": {
       "type": "Point",
       "coordinates":  [ -76.53638982,39.28794695 ]
    },
    "properties": {
    "Location":"6500 EASTERN PKWY",
    "District":"SOUTHEAST"
    }
  },
  {
    "type": "Feature",
    "geometry": {
       "type": "Point",
       "coordinates":  [ -76.5767094,39.29912074 ]
    },
    "properties": {
    "Location":"700 N LINWOOD AVE",
    "District":"EASTERN"
    }
  },
  {
    "type": "Feature",
    "geometry": {
       "type": "Point",
       "coordinates":  [ -76.61186343,39.28958208 ]
    },
    "properties": {
    "Location":"200 E BALTIMORE ST",
    "District":"CENTRAL"
    }
  },
  {
    "type": "Feature",
    "geometry": {
       "type": "Point",
       "coordinates":  [ -76.61375017,39.289536 ]
    },
    "properties": {
    "Location":"0 LIGHT ST",
    "District":"CENTRAL"
    }
  },
  {
    "type": "Feature",
    "geometry": {
       "type": "Point",
       "coordinates":  [ -76.56693018,39.27700093 ]
    },
    "properties": {
    "Location":"3500 BOSTON ST",
    "District":"SOUTHEAST"
    }
  },
  {
    "type": "Feature",
    "geometry": {
       "type": "Point",
       "coordinates":  [ -76.57081831,39.29475958 ]
    },
    "properties": {
    "Location":"3300 E FAYETTE ST",
    "District":"SOUTHEAST"
    }
  },
  {
    "type": "Feature",
    "geometry": {
       "type": "Point",
       "coordinates":  [ -76.61505067,39.28960475 ]
    },
    "properties": {
    "Location":"0 E BALTIMORE ST",
    "District":"CENTRAL"
    }
  },
  {
    "type": "Feature",
    "geometry": {
       "type": "Point",
       "coordinates":  [ -76.56715084,39.27699193 ]
    },
    "properties": {
    "Location":"3500 BOSTON ST",
    "District":"SOUTHEAST"
    }
  },
  {
    "type": "Feature",
    "geometry": {
       "type": "Point",
       "coordinates":  [ -76.69967392,39.3451415 ]
    },
    "properties": {
    "Location":"4500 W NORTHERN PKWY",
    "District":"NORTHWEST"
    }
  },
  {
    "type": "Feature",
    "geometry": {
       "type": "Point",
       "coordinates":  [ -76.61378809,39.28899044 ]
    },
    "properties": {
    "Location":"0 LIGHT ST",
    "District":"CENTRAL"
    }
  },
  {
    "type": "Feature",
    "geometry": {
       "type": "Point",
       "coordinates":  [ -76.56994866,39.34245089 ]
    },
    "properties": {
    "Location":"4600 HARFORD RD",
    "District":"NORTHEAST"
    }
  },
  {
    "type": "Feature",
    "geometry": {
       "type": "Point",
       "coordinates":  [ -76.62461726,39.27528839 ]
    },
    "properties": {
    "Location":"1400 WARNER ST",
    "District":"SOUTHERN"
    }
  },
  {
    "type": "Feature",
    "geometry": {
       "type": "Point",
       "coordinates":  [ -76.57492831,39.30010838 ]
    },
    "properties": {
    "Location":"3000 E MADISON ST",
    "District":"EASTERN"
    }
  },
  {
    "type": "Feature",
    "geometry": {
       "type": "Point",
       "coordinates":  [ -76.64767617,39.36618621 ]
    },
    "properties": {
    "Location":"5700 FALLS RD",
    "District":"NORTHERN"
    }
  },
  {
    "type": "Feature",
    "geometry": {
       "type": "Point",
       "coordinates":  [ -76.66625721,39.34162513 ]
    },
    "properties": {
    "Location":"4500 PIMLICO RD",
    "District":"NORTHWEST"
    }
  },
  {
    "type": "Feature",
    "geometry": {
       "type": "Point",
       "coordinates":  [ -76.54591579999999,39.32243601 ]
    },
    "properties": {
    "Location":"5200 SINCLAIR LN",
    "District":"NORTHEAST"
    }
  },
  {
    "type": "Feature",
    "geometry": {
       "type": "Point",
       "coordinates":  [ -76.60773754,39.33325719 ]
    },
    "properties": {
    "Location":"3600 OLD YORK RD",
    "District":"NORTHERN"
    }
  },
  {
    "type": "Feature",
    "geometry": {
       "type": "Point",
       "coordinates":  [ -76.61882966,39.30331393 ]
    },
    "properties": {
    "Location":"1000 PARK AVE",
    "District":"CENTRAL"
    }
  },
  {
    "type": "Feature",
    "geometry": {
       "type": "Point",
       "coordinates":  [ -76.60946329,39.32568739 ]
    },
    "properties": {
    "Location":"3000 GREENMOUNT AVE",
    "District":"NORTHERN"
    }
  },
  {
    "type": "Feature",
    "geometry": {
       "type": "Point",
       "coordinates":  [ -76.56311837,39.28685118 ]
    },
    "properties": {
    "Location":"4000 EASTERN AVE",
    "District":"SOUTHEAST"
    }
  },
  {
    "type": "Feature",
    "geometry": {
       "type": "Point",
       "coordinates":  [ -76.55558461,39.28713697 ]
    },
    "properties": {
    "Location":"4800 EASTERN AVE",
    "District":"SOUTHEAST"
    }
  },
  {
    "type": "Feature",
    "geometry": {
       "type": "Point",
       "coordinates":  [ -76.61076527,39.28796105 ]
    },
    "properties": {
    "Location":"300 E LOMBARD ST",
    "District":"CENTRAL"
    }
  },
  {
    "type": "Feature",
    "geometry": {
       "type": "Point",
       "coordinates":  [ -76.5897825,39.30073108 ]
    },
    "properties": {
    "Location":"900 N WASHINGTON ST",
    "District":"EASTERN"
    }
  },
  {
    "type": "Feature",
    "geometry": {
       "type": "Point",
       "coordinates":  [ -76.58723068,39.22128875 ]
    },
    "properties": {
    "Location":"1600 CEDDOX ST",
    "District":"SOUTHERN"
    }
  },
  {
    "type": "Feature",
    "geometry": {
       "type": "Point",
       "coordinates":  [ -76.69421881,39.35038671 ]
    },
    "properties": {
    "Location":"5800 REISTERSTOWN RD",
    "District":"NORTHWEST"
    }
  },
  {
    "type": "Feature",
    "geometry": {
       "type": "Point",
       "coordinates":  [ -76.55372536,39.32433902 ]
    },
    "properties": {
    "Location":"4800 BOWLEYS LN",
    "District":"NORTHEAST"
    }
  },
  {
    "type": "Feature",
    "geometry": {
       "type": "Point",
       "coordinates":  [ -76.68260333,39.325743100000004 ]
    },
    "properties": {
    "Location":"3800 W FOREST PARK AVE",
    "District":"NORTHWEST"
    }
  },
  {
    "type": "Feature",
    "geometry": {
       "type": "Point",
       "coordinates":  [ -76.6652173,39.26159349 ]
    },
    "properties": {
    "Location":"1500 S CATON AVE",
    "District":"SOUTHWEST"
    }
  },
  {
    "type": "Feature",
    "geometry": {
       "type": "Point",
       "coordinates":  [ -76.61991022,39.29757276 ]
    },
    "properties": {
    "Location":"700 N HOWARD ST",
    "District":"CENTRAL"
    }
  },
  {
    "type": "Feature",
    "geometry": {
       "type": "Point",
       "coordinates":  [ -76.65493625,39.26453296 ]
    },
    "properties": {
    "Location":"2700 WASHINGTON BLVD",
    "District":"SOUTHWEST"
    }
  },
  {
    "type": "Feature",
    "geometry": {
       "type": "Point",
       "coordinates":  [ -76.6095321,39.31629765 ]
    },
    "properties": {
    "Location":"2400 GREENMOUNT AVE",
    "District":"EASTERN"
    }
  },
  {
    "type": "Feature",
    "geometry": {
       "type": "Point",
       "coordinates":  [ -76.54546985,39.34234671 ]
    },
    "properties": {
    "Location":"5700 BELAIR RD",
    "District":"NORTHEAST"
    }
  },
  {
    "type": "Feature",
    "geometry": {
       "type": "Point",
       "coordinates":  [ -76.59393149,39.29030196 ]
    },
    "properties": {
    "Location":"100 S BROADWAY",
    "District":"SOUTHEAST"
    }
  },
  {
    "type": "Feature",
    "geometry": {
       "type": "Point",
       "coordinates":  [ -76.6652173,39.26159349 ]
    },
    "properties": {
    "Location":"1500 S CATON AVE",
    "District":"SOUTHWEST"
    }
  },
  {
    "type": "Feature",
    "geometry": {
       "type": "Point",
       "coordinates":  [ -76.59840483,39.23503185 ]
    },
    "properties": {
    "Location":"800 E PATAPSCO AVE",
    "District":"SOUTHERN"
    }
  },
  {
    "type": "Feature",
    "geometry": {
       "type": "Point",
       "coordinates":  [ -76.69012868,39.34767937 ]
    },
    "properties": {
    "Location":"5500 REISTERSTOWN RD",
    "District":"NORTHWEST"
    }
  },
  {
    "type": "Feature",
    "geometry": {
       "type": "Point",
       "coordinates":  [ -76.65089503,39.2812641 ]
    },
    "properties": {
    "Location":"500 S SMALLWOOD ST",
    "District":"SOUTHWEST"
    }
  },
  {
    "type": "Feature",
    "geometry": {
       "type": "Point",
       "coordinates":  [ -76.55555849999999,39.3422325 ]
    },
    "properties": {
    "Location":"3800 ECHODALE AVE",
    "District":"NORTHEAST"
    }
  },
  {
    "type": "Feature",
    "geometry": {
       "type": "Point",
       "coordinates":  [ -76.59058929999999,39.32346433 ]
    },
    "properties": {
    "Location":"2700 FENWICK AVE",
    "District":"NORTHEAST"
    }
  },
  {
    "type": "Feature",
    "geometry": {
       "type": "Point",
       "coordinates":  [ -76.6099223,39.28672334 ]
    },
    "properties": {
    "Location":"400 E PRATT ST",
    "District":"CENTRAL"
    }
  },
  {
    "type": "Feature",
    "geometry": {
       "type": "Point",
       "coordinates":  [ -76.64974947,39.30817254 ]
    },
    "properties": {
    "Location":"1700 N PAYSON ST",
    "District":"WESTERN"
    }
  },
  {
    "type": "Feature",
    "geometry": {
       "type": "Point",
       "coordinates":  [ -76.56096971,39.30817903 ]
    },
    "properties": {
    "Location":"4700 ERDMAN AVE",
    "District":"EASTERN"
    }
  },
  {
    "type": "Feature",
    "geometry": {
       "type": "Point",
       "coordinates":  [ -76.61374215,39.28843148 ]
    },
    "properties": {
    "Location":"0 LIGHT ST",
    "District":"CENTRAL"
    }
  },
  {
    "type": "Feature",
    "geometry": {
       "type": "Point",
       "coordinates":  [ -76.60981381,39.35181794 ]
    },
    "properties": {
    "Location":"5200 YORK RD",
    "District":"NORTHERN"
    }
  },
  {
    "type": "Feature",
    "geometry": {
       "type": "Point",
       "coordinates":  [ -76.56942581,39.28660544 ]
    },
    "properties": {
    "Location":"3300 EASTERN AVE",
    "District":"SOUTHEAST"
    }
  },
  {
    "type": "Feature",
    "geometry": {
       "type": "Point",
       "coordinates":  [ -76.61223374,39.27665449 ]
    },
    "properties": {
    "Location":"1100 LIGHT ST",
    "District":"SOUTHERN"
    }
  },
  {
    "type": "Feature",
    "geometry": {
       "type": "Point",
       "coordinates":  [ -76.69898072,39.3452859 ]
    },
    "properties": {
    "Location":"4400 W NORTHERN PKWY",
    "District":"NORTHWEST"
    }
  },
  {
    "type": "Feature",
    "geometry": {
       "type": "Point",
       "coordinates":  [ -76.6168427,39.31640784 ]
    },
    "properties": {
    "Location":"2400 N CHARLES ST",
    "District":"NORTHERN"
    }
  },
  {
    "type": "Feature",
    "geometry": {
       "type": "Point",
       "coordinates":  [ -76.56271077,39.30947558 ]
    },
    "properties": {
    "Location":"4500 ERDMAN AVE",
    "District":"EASTERN"
    }
  },
  {
    "type": "Feature",
    "geometry": {
       "type": "Point",
       "coordinates":  [ -76.54905713,39.32321764 ]
    },
    "properties": {
    "Location":"5300 MORAVIA RD",
    "District":"NORTHEAST"
    }
  },
  {
    "type": "Feature",
    "geometry": {
       "type": "Point",
       "coordinates":  [ -76.64592114,39.30998672 ]
    },
    "properties": {
    "Location":"1700 W NORTH AVE",
    "District":"WESTERN"
    }
  },
  {
    "type": "Feature",
    "geometry": {
       "type": "Point",
       "coordinates":  [ -76.68336090000001,39.35181956 ]
    },
    "properties": {
    "Location":"5500 PARK HEIGHTS AVE",
    "District":"NORTHWEST"
    }
  },
  {
    "type": "Feature",
    "geometry": {
       "type": "Point",
       "coordinates":  [ -76.69108976,39.34818863 ]
    },
    "properties": {
    "Location":"5500 REISTERSTOWN RD",
    "District":"NORTHWEST"
    }
  },
  {
    "type": "Feature",
    "geometry": {
       "type": "Point",
       "coordinates":  [ -76.65583976,39.31949752 ]
    },
    "properties": {
    "Location":"2500 LIBERTY HEIGHTS AVE",
    "District":"NORTHWEST"
    }
  },
  {
    "type": "Feature",
    "geometry": {
       "type": "Point",
       "coordinates":  [ -76.56096971,39.30817903 ]
    },
    "properties": {
    "Location":"4700 ERDMAN AVE",
    "District":"EASTERN"
    }
  },
  {
    "type": "Feature",
    "geometry": {
       "type": "Point",
       "coordinates":  [ -76.57204483,39.32274102 ]
    },
    "properties": {
    "Location":"3400 BELAIR RD",
    "District":"NORTHEAST"
    }
  },
  {
    "type": "Feature",
    "geometry": {
       "type": "Point",
       "coordinates":  [ -76.70068239,39.33305425 ]
    },
    "properties": {
    "Location":"5100 LIBERTY HEIGHTS AVE",
    "District":"NORTHWEST"
    }
  },
  {
    "type": "Feature",
    "geometry": {
       "type": "Point",
       "coordinates":  [ -76.69108976,39.34818863 ]
    },
    "properties": {
    "Location":"5500 REISTERSTOWN RD",
    "District":"NORTHWEST"
    }
  },
  {
    "type": "Feature",
    "geometry": {
       "type": "Point",
       "coordinates":  [ -76.61370546,39.28798712 ]
    },
    "properties": {
    "Location":"0 LIGHT ST",
    "District":"CENTRAL"
    }
  },
  {
    "type": "Feature",
    "geometry": {
       "type": "Point",
       "coordinates":  [ -76.68872539,39.34670876 ]
    },
    "properties": {
    "Location":"5400 REISTERSTOWN RD",
    "District":"NORTHWEST"
    }
  },
  {
    "type": "Feature",
    "geometry": {
       "type": "Point",
       "coordinates":  [ -76.56298879999999,39.29700685 ]
    },
    "properties": {
    "Location":"4100 PULASKI HWY",
    "District":"EASTERN"
    }
  },
  {
    "type": "Feature",
    "geometry": {
       "type": "Point",
       "coordinates":  [ -76.62369484,39.28837778 ]
    },
    "properties": {
    "Location":"0 S GREENE ST",
    "District":"CENTRAL"
    }
  },
  {
    "type": "Feature",
    "geometry": {
       "type": "Point",
       "coordinates":  [ -76.56490849,39.29156507 ]
    },
    "properties": {
    "Location":"3800 E LOMBARD ST",
    "District":"SOUTHEAST"
    }
  },
  {
    "type": "Feature",
    "geometry": {
       "type": "Point",
       "coordinates":  [ -76.67560683,39.31084256 ]
    },
    "properties": {
    "Location":"3400 CLIFTON AVE",
    "District":"SOUTHWEST"
    }
  },
  {
    "type": "Feature",
    "geometry": {
       "type": "Point",
       "coordinates":  [ -76.61505067,39.28960475 ]
    },
    "properties": {
    "Location":"0 E BALTIMORE ST",
    "District":"CENTRAL"
    }
  },
  {
    "type": "Feature",
    "geometry": {
       "type": "Point",
       "coordinates":  [ -76.65511363,39.28384379 ]
    },
    "properties": {
    "Location":"2400 FREDERICK AVE",
    "District":"SOUTHWEST"
    }
  },
  {
    "type": "Feature",
    "geometry": {
       "type": "Point",
       "coordinates":  [ -76.65435151,39.28418736 ]
    },
    "properties": {
    "Location":"2300 FREDERICK AVE",
    "District":"SOUTHWEST"
    }
  },
  {
    "type": "Feature",
    "geometry": {
       "type": "Point",
       "coordinates":  [ -76.58572621,39.29877014 ]
    },
    "properties": {
    "Location":"2200 E MONUMENT ST",
    "District":"EASTERN"
    }
  },
  {
    "type": "Feature",
    "geometry": {
       "type": "Point",
       "coordinates":  [ -76.63020916,39.28784947 ]
    },
    "properties": {
    "Location":"800 HOLLINS ST",
    "District":"SOUTHERN"
    }
  },
  {
    "type": "Feature",
    "geometry": {
       "type": "Point",
       "coordinates":  [ -76.65435151,39.28418736 ]
    },
    "properties": {
    "Location":"2300 FREDERICK AVE",
    "District":"SOUTHWEST"
    }
  },
  {
    "type": "Feature",
    "geometry": {
       "type": "Point",
       "coordinates":  [ -76.62369484,39.28837778 ]
    },
    "properties": {
    "Location":"0 S GREENE ST",
    "District":"CENTRAL"
    }
  },
  {
    "type": "Feature",
    "geometry": {
       "type": "Point",
       "coordinates":  [ -76.59840483,39.23503185 ]
    },
    "properties": {
    "Location":"800 E PATAPSCO AVE",
    "District":"SOUTHERN"
    }
  },
  {
    "type": "Feature",
    "geometry": {
       "type": "Point",
       "coordinates":  [ -76.61001488,39.3629175 ]
    },
    "properties": {
    "Location":"5900 YORK RD",
    "District":"NORTHERN"
    }
  },
  {
    "type": "Feature",
    "geometry": {
       "type": "Point",
       "coordinates":  [ -76.60670495,39.28834026 ]
    },
    "properties": {
    "Location":"0 MARKET PL",
    "District":"CENTRAL"
    }
  },
  {
    "type": "Feature",
    "geometry": {
       "type": "Point",
       "coordinates":  [ -76.63511075,39.30398926 ]
    },
    "properties": {
    "Location":"1700 PENNSYLVANIA AVE",
    "District":"CENTRAL"
    }
  },
  {
    "type": "Feature",
    "geometry": {
       "type": "Point",
       "coordinates":  [ -76.59706013,39.2346152 ]
    },
    "properties": {
    "Location":"900 E PATAPSCO AVE",
    "District":"SOUTHERN"
    }
  },
  {
    "type": "Feature",
    "geometry": {
       "type": "Point",
       "coordinates":  [ -76.57361105,39.32173144 ]
    },
    "properties": {
    "Location":"3300 BELAIR RD",
    "District":"NORTHEAST"
    }
  },
  {
    "type": "Feature",
    "geometry": {
       "type": "Point",
       "coordinates":  [ -76.69462390000001,39.35067333 ]
    },
    "properties": {
    "Location":"5800 REISTERSTOWN RD",
    "District":"NORTHWEST"
    }
  },
  {
    "type": "Feature",
    "geometry": {
       "type": "Point",
       "coordinates":  [ -76.63491395,39.33107029 ]
    },
    "properties": {
    "Location":"3600 FALLS RD",
    "District":"NORTHERN"
    }
  },
  {
    "type": "Feature",
    "geometry": {
       "type": "Point",
       "coordinates":  [ -76.61539502,39.29236268 ]
    },
    "properties": {
    "Location":"300 N CHARLES ST",
    "District":"CENTRAL"
    }
  },
  {
    "type": "Feature",
    "geometry": {
       "type": "Point",
       "coordinates":  [ -76.70140833,39.34478318 ]
    },
    "properties": {
    "Location":"4600 W NORTHERN PKWY",
    "District":"NORTHWEST"
    }
  },
  {
    "type": "Feature",
    "geometry": {
       "type": "Point",
       "coordinates":  [ -76.61457189,39.26312149 ]
    },
    "properties": {
    "Location":"2400 S HANOVER ST",
    "District":"SOUTHERN"
    }
  },
  {
    "type": "Feature",
    "geometry": {
       "type": "Point",
       "coordinates":  [ -76.53354469,39.3574585 ]
    },
    "properties": {
    "Location":"3900 E NORTHERN PKWY",
    "District":"NORTHEAST"
    }
  },
  {
    "type": "Feature",
    "geometry": {
       "type": "Point",
       "coordinates":  [ -76.70880641,39.36095784 ]
    },
    "properties": {
    "Location":"6800 REISTERSTOWN RD",
    "District":"NORTHWEST"
    }
  },
  {
    "type": "Feature",
    "geometry": {
       "type": "Point",
       "coordinates":  [ -76.63462022,39.30342931 ]
    },
    "properties": {
    "Location":"1600 PENNSYLVANIA AVE",
    "District":"CENTRAL"
    }
  },
  {
    "type": "Feature",
    "geometry": {
       "type": "Point",
       "coordinates":  [ -76.58237349,39.28196231 ]
    },
    "properties": {
    "Location":"2400 BOSTON ST",
    "District":"SOUTHEAST"
    }
  },
  {
    "type": "Feature",
    "geometry": {
       "type": "Point",
       "coordinates":  [ -76.63402518,39.31024789 ]
    },
    "properties": {
    "Location":"1000 W NORTH AVE",
    "District":"CENTRAL"
    }
  },
  {
    "type": "Feature",
    "geometry": {
       "type": "Point",
       "coordinates":  [ -76.61952312,39.28942853 ]
    },
    "properties": {
    "Location":"300 W BALTIMORE ST",
    "District":"CENTRAL"
    }
  },
  {
    "type": "Feature",
    "geometry": {
       "type": "Point",
       "coordinates":  [ -76.65326249,39.29618648 ]
    },
    "properties": {
    "Location":"600 N BENTALOU ST",
    "District":"WESTERN"
    }
  },
  {
    "type": "Feature",
    "geometry": {
       "type": "Point",
       "coordinates":  [ -76.61503235,39.28765629 ]
    },
    "properties": {
    "Location":"100 S CHARLES ST",
    "District":"CENTRAL"
    }
  },
  {
    "type": "Feature",
    "geometry": {
       "type": "Point",
       "coordinates":  [ -76.53092846,39.35463708 ]
    },
    "properties": {
    "Location":"6600 BELAIR RD",
    "District":"NORTHEAST"
    }
  },
  {
    "type": "Feature",
    "geometry": {
       "type": "Point",
       "coordinates":  [ -76.54793271,39.32217218 ]
    },
    "properties": {
    "Location":"5000 SINCLAIR LN",
    "District":"NORTHEAST"
    }
  },
  {
    "type": "Feature",
    "geometry": {
       "type": "Point",
       "coordinates":  [ -76.61539502,39.29236268 ]
    },
    "properties": {
    "Location":"300 N CHARLES ST",
    "District":"CENTRAL"
    }
  },
  {
    "type": "Feature",
    "geometry": {
       "type": "Point",
       "coordinates":  [ -76.61539502,39.29236268 ]
    },