{
   "type": "FeatureCollection",
   "features": [
  {
    "type": "Feature",
    "geometry": {
       "type": "Point",
       "coordinates":  [ -76.64717488,39.31768286 ]
    },
    "properties": {
    "Location":"3200 AUCHENTOROLY TER",
    "District":"WESTERN"
    }
  },
  {
    "type": "Feature",
    "geometry": {
       "type": "Point",
       "coordinates":  [ -76.5642347,39.32371056 ]
    },
    "properties": {
    "Location":"3300 RAMONA AVE",
    "District":"NORTHEAST"
    }
  },
  {
    "type": "Feature",
    "geometry": {
       "type": "Point",
       "coordinates":  [ -76.64433507,39.35595704 ]
    },
    "properties": {
    "Location":"5100 FALLS RD",
    "District":"NORTHERN"
    }
  },
  {
    "type": "Feature",
    "geometry": {
       "type": "Point",
       "coordinates":  [ -76.65173373,39.29119955 ]
    },
    "properties": {
    "Location":"2200 PENROSE AVE",
    "District":"WESTERN"
    }
  },
  {
    "type": "Feature",
    "geometry": {
       "type": "Point",
       "coordinates":  [ -76.63253998,39.31556673 ]
    },
    "properties": {
    "Location":"2400 LAKEVIEW AVE",
    "District":"CENTRAL"
    }
  },
  {
    "type": "Feature",
    "geometry": {
       "type": "Point",
       "coordinates":  [ -76.6650429,39.34246487 ]
    },
    "properties": {
    "Location":"4600 PALL MALL RD",
    "District":"NORTHERN"
    }
  },
  {
    "type": "Feature",
    "geometry": {
       "type": "Point",
       "coordinates":  [ -76.5335627,39.27832436 ]
    },
    "properties": {
    "Location":"6700 DULUTH AVE",
    "District":"SOUTHEAST"
    }
  },
  {
    "type": "Feature",
    "geometry": {
       "type": "Point",
       "coordinates":  [ -76.69462390000001,39.35067333 ]
    },
    "properties": {
    "Location":"5800 REISTERSTOWN RD",
    "District":"NORTHWEST"
    }
  },
  {
    "type": "Feature",
    "geometry": {
       "type": "Point",
       "coordinates":  [ -76.54305248,39.32361986 ]
    },
    "properties": {
    "Location":"5300 GOODNOW RD",
    "District":"NORTHEAST"
    }
  },
  {
    "type": "Feature",
    "geometry": {
       "type": "Point",
       "coordinates":  [ -76.60855709,39.29263322 ]
    },
    "properties": {
    "Location":"200 N GAY ST",
    "District":"EASTERN"
    }
  },
  {
    "type": "Feature",
    "geometry": {
       "type": "Point",
       "coordinates":  [ -76.65118694,39.30667937 ]
    },
    "properties": {
    "Location":"1600 N PULASKI ST",
    "District":"WESTERN"
    }
  },
  {
    "type": "Feature",
    "geometry": {
       "type": "Point",
       "coordinates":  [ -76.65524856,39.30172632 ]
    },
    "properties": {
    "Location":"2400 WINCHESTER ST",
    "District":"WESTERN"
    }
  },
  {
    "type": "Feature",
    "geometry": {
       "type": "Point",
       "coordinates":  [ -76.60886559,39.28985604 ]
    },
    "properties": {
    "Location":"500 E BALTIMORE ST",
    "District":"CENTRAL"
    }
  },
  {
    "type": "Feature",
    "geometry": {
       "type": "Point",
       "coordinates":  [ -76.63905153,39.33176075 ]
    },
    "properties": {
    "Location":"1400 W 37TH ST",
    "District":"NORTHERN"
    }
  },
  {
    "type": "Feature",
    "geometry": {
       "type": "Point",
       "coordinates":  [ -76.59908441,39.23035172 ]
    },
    "properties": {
    "Location":"900 STOLL ST",
    "District":"SOUTHERN"
    }
  },
  {
    "type": "Feature",
    "geometry": {
       "type": "Point",
       "coordinates":  [ -76.60479811,39.29919059 ]
    },
    "properties": {
    "Location":"900 WILMOT CT",
    "District":"EASTERN"
    }
  },
  {
    "type": "Feature",
    "geometry": {
       "type": "Point",
       "coordinates":  [ -76.68686718,39.32475165 ]
    },
    "properties": {
    "Location":"3300 OAKFIELD AVE",
    "District":"NORTHWEST"
    }
  },
  {
    "type": "Feature",
    "geometry": {
       "type": "Point",
       "coordinates":  [ -76.63568612,39.30429791 ]
    },
    "properties": {
    "Location":"1800 PENNSYLVANIA AVE",
    "District":"CENTRAL"
    }
  },
  {
    "type": "Feature",
    "geometry": {
       "type": "Point",
       "coordinates":  [ -76.68164612,39.36983696 ]
    },
    "properties": {
    "Location":"6300 GREENSPRING AVE",
    "District":"NORTHWEST"
    }
  },
  {
    "type": "Feature",
    "geometry": {
       "type": "Point",
       "coordinates":  [ -76.57644807,39.29899959 ]
    },
    "properties": {
    "Location":"2900 E MONUMENT ST",
    "District":"EASTERN"
    }
  },
  {
    "type": "Feature",
    "geometry": {
       "type": "Point",
       "coordinates":  [ -76.62651701,39.27764735 ]
    },
    "properties": {
    "Location":"1200 RIDGELY ST",
    "District":"SOUTHERN"
    }
  },
  {
    "type": "Feature",
    "geometry": {
       "type": "Point",
       "coordinates":  [ -76.54712661,39.37060016 ]
    },
    "properties": {
    "Location":"2900 CLEARVIEW AVE",
    "District":"NORTHEAST"
    }
  },
  {
    "type": "Feature",
    "geometry": {
       "type": "Point",
       "coordinates":  [ -76.65501276,39.30898077 ]
    },
    "properties": {
    "Location":"1800 RUXTON AVE",
    "District":"WESTERN"
    }
  },
  {
    "type": "Feature",
    "geometry": {
       "type": "Point",
       "coordinates":  [ -76.57311181,39.30976994 ]
    },
    "properties": {
    "Location":"1600 EDISON HWY",
    "District":"EASTERN"
    }
  },
  {
    "type": "Feature",
    "geometry": {
       "type": "Point",
       "coordinates":  [ -76.65841956,39.33606076 ]
    },
    "properties": {
    "Location":"4000 DERBY MANOR DR",
    "District":"CENTRAL"
    }
  },
  {
    "type": "Feature",
    "geometry": {
       "type": "Point",
       "coordinates":  [ -76.68196533,39.32425891 ]
    },
    "properties": {
    "Location":"3800 FAIRVIEW AVE",
    "District":"NORTHWEST"
    }
  },
  {
    "type": "Feature",
    "geometry": {
       "type": "Point",
       "coordinates":  [ -76.56937435,39.3244296 ]
    },
    "properties": {
    "Location":"3000 CHESTERFIELD AVE",
    "District":"NORTHEAST"
    }
  },
  {
    "type": "Feature",
    "geometry": {
       "type": "Point",
       "coordinates":  [ -76.56901117,39.29483579 ]
    },
    "properties": {
    "Location":"3400 E FAYETTE ST",
    "District":"SOUTHEAST"
    }
  },
  {
    "type": "Feature",
    "geometry": {
       "type": "Point",
       "coordinates":  [ -76.61483112,39.29520373 ]
    },
    "properties": {
    "Location":"0 E FRANKLIN ST",
    "District":"CENTRAL"
    }
  },
  {
    "type": "Feature",
    "geometry": {
       "type": "Point",
       "coordinates":  [ -76.57014946,39.32159081 ]
    },
    "properties": {
    "Location":"3200 LAKE AVE",
    "District":"NORTHEAST"
    }
  },
  {
    "type": "Feature",
    "geometry": {
       "type": "Point",
       "coordinates":  [ -76.56815419,39.29192182 ]
    },
    "properties": {
    "Location":"3400 LEVERTON AVE",
    "District":"SOUTHEAST"
    }
  },
  {
    "type": "Feature",
    "geometry": {
       "type": "Point",
       "coordinates":  [ -76.58565743,39.37045129 ]
    },
    "properties": {
    "Location":"1400 WALKER AVE",
    "District":"NORTHEAST"
    }
  },
  {
    "type": "Feature",
    "geometry": {
       "type": "Point",
       "coordinates":  [ -76.59102013,39.29961495 ]
    },
    "properties": {
    "Location":"800 N WOLFE ST",
    "District":"EASTERN"
    }
  },
  {
    "type": "Feature",
    "geometry": {
       "type": "Point",
       "coordinates":  [ -76.62369484,39.28837778 ]
    },
    "properties": {
    "Location":"0 S GREENE ST",
    "District":"CENTRAL"
    }
  },
  {
    "type": "Feature",
    "geometry": {
       "type": "Point",
       "coordinates":  [ -76.57454026,39.32373482 ]
    },
    "properties": {
    "Location":"3400 CARDENAS AVE",
    "District":"NORTHEAST"
    }
  },
  {
    "type": "Feature",
    "geometry": {
       "type": "Point",
       "coordinates":  [ -76.66662966,39.26179315 ]
    },
    "properties": {
    "Location":"1400 BLOOMFIELD AVE",
    "District":"SOUTHWEST"
    }
  },
  {
    "type": "Feature",
    "geometry": {
       "type": "Point",
       "coordinates":  [ -76.63378526,39.2899659 ]
    },
    "properties": {
    "Location":"100 N SCHROEDER ST",
    "District":"WESTERN"
    }
  },
  {
    "type": "Feature",
    "geometry": {
       "type": "Point",
       "coordinates":  [ -76.60954447,39.31491275 ]
    },
    "properties": {
    "Location":"2200 GREENMOUNT AVE",
    "District":"EASTERN"
    }
  },
  {
    "type": "Feature",
    "geometry": {
       "type": "Point",
       "coordinates":  [ -76.57292634,39.29731753 ]
    },
    "properties": {
    "Location":"500 N ROBINSON ST",
    "District":"SOUTHEAST"
    }
  },
  {
    "type": "Feature",
    "geometry": {
       "type": "Point",
       "coordinates":  [ -76.58406151,39.29547316 ]
    },
    "properties": {
    "Location":"2300 ORLEANS ST",
    "District":"SOUTHEAST"
    }
  },
  {
    "type": "Feature",
    "geometry": {
       "type": "Point",
       "coordinates":  [ -76.64883566,39.28298776 ]
    },
    "properties": {
    "Location":"2000 RAMSAY ST",
    "District":"SOUTHERN"
    }
  },
  {
    "type": "Feature",
    "geometry": {
       "type": "Point",
       "coordinates":  [ -76.64779245,39.28076916 ]
    },
    "properties": {
    "Location":"2000 EAGLE ST",
    "District":"SOUTHERN"
    }
  },
  {
    "type": "Feature",
    "geometry": {
       "type": "Point",
       "coordinates":  [ -76.60734804,39.338922600000004 ]
    },
    "properties": {
    "Location":"600 CATOR AVE",
    "District":"NORTHERN"
    }
  },
  {
    "type": "Feature",
    "geometry": {
       "type": "Point",
       "coordinates":  [ -76.55655978,39.28775124 ]
    },
    "properties": {
    "Location":"400 S NEWKIRK ST",
    "District":"SOUTHEAST"
    }
  },
  {
    "type": "Feature",
    "geometry": {
       "type": "Point",
       "coordinates":  [ -76.54483132,39.28872766 ]
    },
    "properties": {
    "Location":"400 CORNWALL ST",
    "District":"SOUTHEAST"
    }
  },
  {
    "type": "Feature",
    "geometry": {
       "type": "Point",
       "coordinates":  [ -76.6113803,39.35186839 ]
    },
    "properties": {
    "Location":"5200 GALLAGHER CT",
    "District":"NORTHERN"
    }
  },
  {
    "type": "Feature",
    "geometry": {
       "type": "Point",
       "coordinates":  [ -76.70607729,39.36917317 ]
    },
    "properties": {
    "Location":"7200 WALLIS AV",
    "District":"NORTHWEST"
    }
  },
  {
    "type": "Feature",
    "geometry": {
       "type": "Point",
       "coordinates":  [ -76.60165494,39.29397442 ]
    },
    "properties": {
    "Location":"200 AISQUITH ST",
    "District":"SOUTHEAST"
    }
  },
  {
    "type": "Feature",
    "geometry": {
       "type": "Point",
       "coordinates":  [ -76.65087209999999,39.26350468 ]
    },
    "properties": {
    "Location":"2600 TOLLEY ST",
    "District":"SOUTHWEST"
    }
  },
  {
    "type": "Feature",
    "geometry": {
       "type": "Point",
       "coordinates":  [ -76.60204352,39.30023768 ]
    },
    "properties": {
    "Location":"900 AISQUITH ST",
    "District":"EASTERN"
    }
  },
  {
    "type": "Feature",
    "geometry": {
       "type": "Point",
       "coordinates":  [ -76.57229651,39.36332784 ]
    },
    "properties": {
    "Location":"6300 PIONEER DR",
    "District":"NORTHEAST"
    }
  },
  {
    "type": "Feature",
    "geometry": {
       "type": "Point",
       "coordinates":  [ -76.53019826,39.33527956 ]
    },
    "properties": {
    "Location":"5500 WHITBY RD",
    "District":"NORTHEAST"
    }
  },
  {
    "type": "Feature",
    "geometry": {
       "type": "Point",
       "coordinates":  [ -76.54773975,39.36693137 ]
    },
    "properties": {
    "Location":"3000 ORLANDO AVE",
    "District":"NORTHEAST"
    }
  },
  {
    "type": "Feature",
    "geometry": {
       "type": "Point",
       "coordinates":  [ -76.69304971,39.28214509 ]
    },
    "properties": {
    "Location":"200 S BEECHFIELD AVE",
    "District":"SOUTHWEST"
    }
  },
  {
    "type": "Feature",
    "geometry": {
       "type": "Point",
       "coordinates":  [ -76.60524169,39.31222106 ]
    },
    "properties": {
    "Location":"1900 CECIL AVE",
    "District":"EASTERN"
    }
  },
  {
    "type": "Feature",
    "geometry": {
       "type": "Point",
       "coordinates":  [ -76.63134111,39.31174979 ]
    },
    "properties": {
    "Location":"2100 CALLOW AVE",
    "District":"CENTRAL"
    }
  },
  {
    "type": "Feature",
    "geometry": {
       "type": "Point",
       "coordinates":  [ -76.61283047,39.28893912 ]
    },
    "properties": {
    "Location":"100 E REDWOOD ST",
    "District":"CENTRAL"
    }
  },
  {
    "type": "Feature",
    "geometry": {
       "type": "Point",
       "coordinates":  [ -76.58788168,39.29767433 ]
    },
    "properties": {
    "Location":"600 N CHESTER ST",
    "District":"EASTERN"
    }
  },
  {
    "type": "Feature",
    "geometry": {
       "type": "Point",
       "coordinates":  [ -76.61483112,39.29520373 ]
    },
    "properties": {
    "Location":"0 E FRANKLIN ST",
    "District":"CENTRAL"
    }
  },
  {
    "type": "Feature",
    "geometry": {
       "type": "Point",
       "coordinates":  [ -76.61393485,39.29237412 ]
    },
    "properties": {
    "Location":"300 SAINT PAUL PL",
    "District":"CENTRAL"
    }
  },
  {
    "type": "Feature",
    "geometry": {
       "type": "Point",
       "coordinates":  [ -76.65643596,39.28815016 ]
    },
    "properties": {
    "Location":"0 N CATHERINE ST",
    "District":"SOUTHWEST"
    }
  },
  {
    "type": "Feature",
    "geometry": {
       "type": "Point",
       "coordinates":  [ -76.57480747,39.29522245 ]
    },
    "properties": {
    "Location":"3000 PULASKI HWY",
    "District":"SOUTHEAST"
    }
  },
  {
    "type": "Feature",
    "geometry": {
       "type": "Point",
       "coordinates":  [ -76.65497555,39.299100700000004 ]
    },
    "properties": {
    "Location":"900 WHEELER AVE",
    "District":"WESTERN"
    }
  },
  {
    "type": "Feature",
    "geometry": {
       "type": "Point",
       "coordinates":  [ -76.59047008,39.22967795 ]
    },
    "properties": {
    "Location":"3900 FAIRHAVEN AVE",
    "District":"SOUTHERN"
    }
  },
  {
    "type": "Feature",
    "geometry": {
       "type": "Point",
       "coordinates":  [ -76.60907126,39.23709377 ]
    },
    "properties": {
    "Location":"3700 2ND ST",
    "District":"SOUTHERN"
    }
  },
  {
    "type": "Feature",
    "geometry": {
       "type": "Point",
       "coordinates":  [ -76.64926571,39.31129435 ]
    },
    "properties": {
    "Location":"1900 RIDGEHILL AVE",
    "District":"WESTERN"
    }
  },
  {
    "type": "Feature",
    "geometry": {
       "type": "Point",
       "coordinates":  [ -76.5893888,39.29618539 ]
    },
    "properties": {
    "Location":"400 N WASHINGTON ST",
    "District":"EASTERN"
    }
  },
  {
    "type": "Feature",
    "geometry": {
       "type": "Point",
       "coordinates":  [ -76.61092641,39.28965021 ]
    },
    "properties": {
    "Location":"0 SOUTH ST",
    "District":"CENTRAL"
    }
  },
  {
    "type": "Feature",
    "geometry": {
       "type": "Point",
       "coordinates":  [ -76.59881679,39.31889944 ]
    },
    "properties": {
    "Location":"2500 GARRETT AVE",
    "District":"NORTHEAST"
    }
  },
  {
    "type": "Feature",
    "geometry": {
       "type": "Point",
       "coordinates":  [ -76.59990074,39.31466794 ]
    },
    "properties": {
    "Location":"2100 AIKEN ST",
    "District":"EASTERN"
    }
  },
  {
    "type": "Feature",
    "geometry": {
       "type": "Point",
       "coordinates":  [ -76.63642246,39.302538399999996 ]
    },
    "properties": {
    "Location":"1200 N FREMONT AVE",
    "District":"WESTERN"
    }
  },
  {
    "type": "Feature",
    "geometry": {
       "type": "Point",
       "coordinates":  [ -76.60277542,39.2352854 ]
    },
    "properties": {
    "Location":"600 PONTIAC AVE",
    "District":"SOUTHERN"
    }
  },
  {
    "type": "Feature",
    "geometry": {
       "type": "Point",
       "coordinates":  [ -76.54843199,39.2718408 ]
    },
    "properties": {
    "Location":"5500 HOLABIRD AVE",
    "District":"SOUTHEAST"
    }
  },
  {
    "type": "Feature",
    "geometry": {
       "type": "Point",
       "coordinates":  [ -76.64257451,39.29076121 ]
    },
    "properties": {
    "Location":"200 N GILMOR ST",
    "District":"WESTERN"
    }
  },
  {
    "type": "Feature",
    "geometry": {
       "type": "Point",
       "coordinates":  [ -76.6148895,39.29869986 ]
    },
    "properties": {
    "Location":"0 E MADISON ST",
    "District":"CENTRAL"
    }
  },
  {
    "type": "Feature",
    "geometry": {
       "type": "Point",
       "coordinates":  [ -76.61550695,39.25326347 ]
    },
    "properties": {
    "Location":"0 CHERRY HILL RD",
    "District":"SOUTHERN"
    }
  },
  {
    "type": "Feature",
    "geometry": {
       "type": "Point",
       "coordinates":  [ -76.61934049,39.28751298 ]
    },
    "properties": {
    "Location":"300 W LOMBARD ST",
    "District":"CENTRAL"
    }
  },
  {
    "type": "Feature",
    "geometry": {
       "type": "Point",
       "coordinates":  [ -76.64219323,39.31124531 ]
    },
    "properties": {
    "Location":"2400 WOODBROOK AVE",
    "District":"WESTERN"
    }
  },
  {
    "type": "Feature",
    "geometry": {
       "type": "Point",
       "coordinates":  [ -76.6113279,39.31660774 ]
    },
    "properties": {
    "Location":"2400 BARCLAY ST",
    "District":"EASTERN"
    }
  },
  {
    "type": "Feature",
    "geometry": {
       "type": "Point",
       "coordinates":  [ -76.61537212,39.31854169 ]
    },
    "properties": {
    "Location":"2500 SAINT PAUL ST",
    "District":"NORTHERN"
    }
  },
  {
    "type": "Feature",
    "geometry": {
       "type": "Point",
       "coordinates":  [ -76.61278089,39.29526028 ]
    },
    "properties": {
    "Location":"500 N CALVERT ST",
    "District":"CENTRAL"
    }
  },
  {
    "type": "Feature",
    "geometry": {
       "type": "Point",
       "coordinates":  [ -76.54668762,39.3284941 ]
    },
    "properties": {
    "Location":"4900 CRENSHAW AVE",
    "District":"NORTHEAST"
    }
  },
  {
    "type": "Feature",
    "geometry": {
       "type": "Point",
       "coordinates":  [ -76.58418285,39.30534538 ]
    },
    "properties": {
    "Location":"1200 N MONTFORD AVE",
    "District":"EASTERN"
    }
  },
  {
    "type": "Feature",
    "geometry": {
       "type": "Point",
       "coordinates":  [ -76.67843001,39.357656299999995 ]
    },
    "properties": {
    "Location":"5700 KEY AVE",
    "District":"NORTHWEST"
    }
  },
  {
    "type": "Feature",
    "geometry": {
       "type": "Point",
       "coordinates":  [ -76.62717109,39.30110774 ]
    },
    "properties": {
    "Location":"1200 STODDARD CT",
    "District":"CENTRAL"
    }
  },
  {
    "type": "Feature",
    "geometry": {
       "type": "Point",
       "coordinates":  [ -76.59122031,39.31309178 ]
    },
    "properties": {
    "Location":"1900 E 20TH ST",
    "District":"EASTERN"
    }
  },
  {
    "type": "Feature",
    "geometry": {
       "type": "Point",
       "coordinates":  [ -76.68243541,39.30881998 ]
    },
    "properties": {
    "Location":"3700 NORTONIA RD",
    "District":"SOUTHWEST"
    }
  },
  {
    "type": "Feature",
    "geometry": {
       "type": "Point",
       "coordinates":  [ -76.6529069,39.31076968 ]
    },
    "properties": {
    "Location":"2200 WALBROOK AVE",
    "District":"WESTERN"
    }
  },
  {
    "type": "Feature",
    "geometry": {
       "type": "Point",
       "coordinates":  [ -76.62924098,39.25715513 ]
    },
    "properties": {
    "Location":"3000 WATERVIEW AVE",
    "District":"SOUTHERN"
    }
  },
  {
    "type": "Feature",
    "geometry": {
       "type": "Point",
       "coordinates":  [ -76.65577897,39.31065866 ]
    },
    "properties": {
    "Location":"2000 WHEELER AVE",
    "District":"WESTERN"
    }
  },
  {
    "type": "Feature",
    "geometry": {
       "type": "Point",
       "coordinates":  [ -76.65747848,39.29391353 ]
    },
    "properties": {
    "Location":"2500 LAURETTA AVE",
    "District":"WESTERN"
    }
  },
  {
    "type": "Feature",
    "geometry": {
       "type": "Point",
       "coordinates":  [ -76.58961362,39.30761084 ]
    },
    "properties": {
    "Location":"2000 E OLIVER ST",
    "District":"EASTERN"
    }
  },
  {
    "type": "Feature",
    "geometry": {
       "type": "Point",
       "coordinates":  [ -76.67837344,39.29271942 ]
    },
    "properties": {
    "Location":"500 ALLENDALE ST",
    "District":"SOUTHWEST"
    }
  },
  {
    "type": "Feature",
    "geometry": {
       "type": "Point",
       "coordinates":  [ -76.67647708,39.29455119 ]
    },
    "properties": {
    "Location":"600 LINNARD ST",
    "District":"SOUTHWEST"
    }
  },
  {
    "type": "Feature",
    "geometry": {
       "type": "Point",
       "coordinates":  [ -76.60712006,39.337398 ]
    },
    "properties": {
    "Location":"600 WYANOKE AVE",
    "District":"NORTHERN"
    }
  },
  {
    "type": "Feature",
    "geometry": {
       "type": "Point",
       "coordinates":  [ -76.63259202,39.29002146 ]
    },
    "properties": {
    "Location":"900 W FAYETTE ST",
    "District":"WESTERN"
    }
  },
  {
    "type": "Feature",
    "geometry": {
       "type": "Point",
       "coordinates":  [ -76.68461495,39.26757951 ]
    },
    "properties": {
    "Location":"3900 COLCHESTER RD",
    "District":"SOUTHWEST"
    }
  },
  {
    "type": "Feature",
    "geometry": {
       "type": "Point",
       "coordinates":  [ -76.61502109,39.33067303 ]
    },
    "properties": {
    "Location":"200 E UNIVERSITY PKWY",
    "District":"NORTHERN"
    }
  },
  {
    "type": "Feature",
    "geometry": {
       "type": "Point",
       "coordinates":  [ -76.61095118,39.23545089 ]
    },
    "properties": {
    "Location":"100 JEFFREY ST",
    "District":"SOUTHERN"
    }
  },
  {
    "type": "Feature",
    "geometry": {
       "type": "Point",
       "coordinates":  [ -76.69219165,39.27354786 ]
    },
    "properties": {
    "Location":"600 LUCIA AVE",
    "District":"SOUTHWEST"
    }
  },
  {
    "type": "Feature",
    "geometry": {
       "type": "Point",
       "coordinates":  [ -76.64450402,39.30031057 ]
    },
    "properties": {
    "Location":"1000 N MOUNT ST",
    "District":"WESTERN"
    }
  },
  {
    "type": "Feature",
    "geometry": {
       "type": "Point",
       "coordinates":  [ -76.54304864,39.32361149 ]
    },
    "properties": {
    "Location":"5300 GOODNOW RD",
    "District":"NORTHEAST"
    }
  },
  {
    "type": "Feature",
    "geometry": {
       "type": "Point",
       "coordinates":  [ -76.57866556,39.29825283 ]
    },
    "properties": {
    "Location":"600 N BELNORD AVE",
    "District":"SOUTHEAST"
    }
  },
  {
    "type": "Feature",
    "geometry": {
       "type": "Point",
       "coordinates":  [ -76.62264626,39.30336821 ]
    },
    "properties": {
    "Location":"1100 BOLTON ST",
    "District":"CENTRAL"
    }
  },
  {
    "type": "Feature",
    "geometry": {
       "type": "Point",
       "coordinates":  [ -76.63527263,39.30911871 ]
    },
    "properties": {
    "Location":"2100 TIFFANY ALY",
    "District":"CENTRAL"
    }
  },
  {
    "type": "Feature",
    "geometry": {
       "type": "Point",
       "coordinates":  [ -76.55806638,39.28642125 ]
    },
    "properties": {
    "Location":"500 S LEHIGH ST",
    "District":"SOUTHEAST"
    }
  },
  {
    "type": "Feature",
    "geometry": {
       "type": "Point",
       "coordinates":  [ -76.59613559,39.32413874 ]
    },
    "properties": {
    "Location":"2800 KIRK AVE",
    "District":"NORTHEAST"
    }
  },
  {
    "type": "Feature",
    "geometry": {
       "type": "Point",
       "coordinates":  [ -76.6742151,39.3228786 ]
    },
    "properties": {
    "Location":"3400 SPRINGDALE AVE",
    "District":"NORTHWEST"
    }
  },
  {
    "type": "Feature",
    "geometry": {
       "type": "Point",
       "coordinates":  [ -76.61115789,39.31811439 ]
    },
    "properties": {
    "Location":"2500 BARCLAY ST",
    "District":"NORTHERN"
    }
  },
  {
    "type": "Feature",
    "geometry": {
       "type": "Point",
       "coordinates":  [ -76.64289206,39.29661008 ]
    },
    "properties": {
    "Location":"1500 HARLEM AVE",
    "District":"WESTERN"
    }
  },
  {
    "type": "Feature",
    "geometry": {
       "type": "Point",
       "coordinates":  [ -76.57330529,39.29279033 ]
    },
    "properties": {
    "Location":"0 N ELLWOOD AVE",
    "District":"SOUTHEAST"
    }
  },
  {
    "type": "Feature",
    "geometry": {
       "type": "Point",
       "coordinates":  [ -76.61205662,39.28664177 ]
    },
    "properties": {
    "Location":"200 E PRATT ST",
    "District":"CENTRAL"
    }
  },
  {
    "type": "Feature",
    "geometry": {
       "type": "Point",
       "coordinates":  [ -76.57064472,39.29626481 ]
    },
    "properties": {
    "Location":"400 N CLINTON ST",
    "District":"SOUTHEAST"
    }
  },
  {
    "type": "Feature",
    "geometry": {
       "type": "Point",
       "coordinates":  [ -76.65070291,39.3167792 ]
    },
    "properties": {
    "Location":"2500 Reistertown Rd",
    "District":"WESTERN"
    }
  },
  {
    "type": "Feature",
    "geometry": {
       "type": "Point",
       "coordinates":  [ -76.53706465,39.3218179 ]
    },
    "properties": {
    "Location":"5500 FORCE RD",
    "District":"NORTHEAST"
    }
  },
  {
    "type": "Feature",
    "geometry": {
       "type": "Point",
       "coordinates":  [ -76.53706465,39.3218179 ]
    },
    "properties": {
    "Location":"5500 FORCE RD",
    "District":"NORTHEAST"
    }
  },
  {
    "type": "Feature",
    "geometry": {
       "type": "Point",
       "coordinates":  [ -76.66500731,39.294891899999996 ]
    },
    "properties": {
    "Location":"600 POPLAR GROVE ST",
    "District":"SOUTHWEST"
    }
  },
  {
    "type": "Feature",
    "geometry": {
       "type": "Point",
       "coordinates":  [ -76.66811115,39.30526137 ]
    },
    "properties": {
    "Location":"3000 BRIGHTON ST",
    "District":"SOUTHWEST"
    }
  },
  {
    "type": "Feature",
    "geometry": {
       "type": "Point",
       "coordinates":  [ -76.60219058,39.32482791 ]
    },
    "properties": {
    "Location":"1100 HOMESTEAD ST",
    "District":"NORTHERN"
    }
  },
  {
    "type": "Feature",
    "geometry": {
       "type": "Point",
       "coordinates":  [ -76.62369484,39.28837778 ]
    },
    "properties": {
    "Location":"0 S GREENE ST",
    "District":"CENTRAL"
    }
  },
  {
    "type": "Feature",
    "geometry": {
       "type": "Point",
       "coordinates":  [ -76.61583535,39.30112398 ]
    },
    "properties": {
    "Location":"1000 N CHARLES ST",
    "District":"CENTRAL"
    }
  },
  {
    "type": "Feature",
    "geometry": {
       "type": "Point",
       "coordinates":  [ -76.58205623,39.34049166 ]
    },
    "properties": {
    "Location":"1900 ARGONNE DR",
    "District":"NORTHEAST"
    }
  },
  {
    "type": "Feature",
    "geometry": {
       "type": "Point",
       "coordinates":  [ -76.58199149,39.294846 ]
    },
    "properties": {
    "Location":"200 N MILTON AVE",
    "District":"SOUTHEAST"
    }
  },
  {
    "type": "Feature",
    "geometry": {
       "type": "Point",
       "coordinates":  [ -76.56935018,39.29071585 ]
    },
    "properties": {
    "Location":"100 S HIGHLAND AVE",
    "District":"SOUTHEAST"
    }
  },
  {
    "type": "Feature",
    "geometry": {
       "type": "Point",
       "coordinates":  [ -76.69595721,39.34185602 ]
    },
    "properties": {
    "Location":"4300 N ROGERS AVE",
    "District":"NORTHWEST"
    }
  },
  {
    "type": "Feature",
    "geometry": {
       "type": "Point",
       "coordinates":  [ -76.60196812,39.31826397 ]
    },
    "properties": {
    "Location":"800 E 25TH ST",
    "District":"NORTHEAST"
    }
  },
  {
    "type": "Feature",
    "geometry": {
       "type": "Point",
       "coordinates":  [ -76.60806459,39.28989204 ]
    },
    "properties": {
    "Location":"600 E BALTIMORE ST",
    "District":"CENTRAL"
    }
  },
  {
    "type": "Feature",
    "geometry": {
       "type": "Point",
       "coordinates":  [ -76.58866792,39.313552 ]
    },
    "properties": {
    "Location":"2100 CLIFTWOOD AVE",
    "District":"EASTERN"
    }
  },
  {
    "type": "Feature",
    "geometry": {
       "type": "Point",
       "coordinates":  [ -76.68524452,39.29779815 ]
    },
    "properties": {
    "Location":"900 AUGUSTA",
    "District":"SOUTHWEST"
    }
  },
  {
    "type": "Feature",
    "geometry": {
       "type": "Point",
       "coordinates":  [ -76.60391605,39.31382619 ]
    },
    "properties": {
    "Location":"2000 KENNEDY AVE",
    "District":"EASTERN"
    }
  },
  {
    "type": "Feature",
    "geometry": {
       "type": "Point",
       "coordinates":  [ -76.60096195,39.22963121 ]
    },
    "properties": {
    "Location":"800 GLADE CT",
    "District":"SOUTHERN"
    }
  },
  {
    "type": "Feature",
    "geometry": {
       "type": "Point",
       "coordinates":  [ -76.66138319,39.31155319 ]
    },
    "properties": {
    "Location":"2100 BRADDISH AVE",
    "District":"WESTERN"
    }
  },
  {
    "type": "Feature",
    "geometry": {
       "type": "Point",
       "coordinates":  [ -76.64872597,39.25443852 ]
    },
    "properties": {
    "Location":"2500 SOUTHDENE AVE",
    "District":"SOUTHERN"
    }
  },
  {
    "type": "Feature",
    "geometry": {
       "type": "Point",
       "coordinates":  [ -76.64872597,39.25443852 ]
    },
    "properties": {
    "Location":"2500 SOUTHDENE AVE",
    "District":"SOUTHERN"
    }
  },
  {
    "type": "Feature",
    "geometry": {
       "type": "Point",
       "coordinates":  [ -76.53252489,39.33286825 ]
    },
    "properties": {
    "Location":"5400 CEDONIA AVE",
    "District":"NORTHEAST"
    }
  },
  {
    "type": "Feature",
    "geometry": {
       "type": "Point",
       "coordinates":  [ -76.68578874,39.33877556 ]
    },
    "properties": {
    "Location":"4000 PENHURST AVE",
    "District":"NORTHWEST"
    }
  },
  {
    "type": "Feature",
    "geometry": {
       "type": "Point",
       "coordinates":  [ -76.6484926,39.29503732 ]
    },
    "properties": {
    "Location":"1900 EDMONDSON AVE",
    "District":"WESTERN"
    }
  },
  {
    "type": "Feature",
    "geometry": {
       "type": "Point",
       "coordinates":  [ -76.62842309999999,39.24620618 ]
    },
    "properties": {
    "Location":"2800 SPELMAN RD",
    "District":"SOUTHERN"
    }
  },
  {
    "type": "Feature",
    "geometry": {
       "type": "Point",
       "coordinates":  [ -76.63623488,39.31711388 ]
    },
    "properties": {
    "Location":"900 DRUID PARK LAKE DR",
    "District":"NORTHERN"
    }
  },
  {
    "type": "Feature",
    "geometry": {
       "type": "Point",
       "coordinates":  [ -76.59685722,39.3077746 ]
    },
    "properties": {
    "Location":"1500 N BOND ST",
    "District":"EASTERN"
    }
  },
  {
    "type": "Feature",
    "geometry": {
       "type": "Point",
       "coordinates":  [ -76.64208934,39.28226584 ]
    },
    "properties": {
    "Location":"1600 COLE ST",
    "District":"SOUTHERN"
    }
  },
  {
    "type": "Feature",
    "geometry": {
       "type": "Point",
       "coordinates":  [ -76.61441806,39.27675525 ]
    },
    "properties": {
    "Location":"1100 S CHARLES ST",
    "District":"SOUTHERN"
    }
  },
  {
    "type": "Feature",
    "geometry": {
       "type": "Point",
       "coordinates":  [ -76.61207383,39.2746 ]
    },
    "properties": {
    "Location":"1300 LIGHT ST",
    "District":"SOUTHERN"
    }
  },
  {
    "type": "Feature",
    "geometry": {
       "type": "Point",
       "coordinates":  [ -76.61671469,39.31452808 ]
    },
    "properties": {
    "Location":"2200 N CHARLES ST",
    "District":"NORTHERN"
    }
  },
  {
    "type": "Feature",
    "geometry": {
       "type": "Point",
       "coordinates":  [ -76.65110665,39.26780314 ]
    },
    "properties": {
    "Location":"2400 WASHINGTON BLVD",
    "District":"SOUTHWEST"
    }
  },
  {
    "type": "Feature",
    "geometry": {
       "type": "Point",
       "coordinates":  [ -76.59568093,39.35695059 ]
    },
    "properties": {
    "Location":"5600 THE ALAMEDA",
    "District":"NORTHERN"
    }
  },
  {
    "type": "Feature",
    "geometry": {
       "type": "Point",
       "coordinates":  [ -76.57009254,39.2794481 ]
    },
    "properties": {
    "Location":"3200 ELLIOTT ST",
    "District":"SOUTHEAST"
    }
  },
  {
    "type": "Feature",
    "geometry": {
       "type": "Point",
       "coordinates":  [ -76.61479262,39.30993553 ]
    },
    "properties": {
    "Location":"100 W LAFAYETTE AVE",
    "District":"CENTRAL"
    }
  },
  {
    "type": "Feature",
    "geometry": {
       "type": "Point",
       "coordinates":  [ -76.60976428,39.36921554 ]
    },
    "properties": {
    "Location":"6200 YORK RD",
    "District":"NORTHERN"
    }
  },
  {
    "type": "Feature",
    "geometry": {
       "type": "Point",
       "coordinates":  [ -76.57307598,39.3083934 ]
    },
    "properties": {
    "Location":"1500 EDISON HWY",
    "District":"EASTERN"
    }
  },
  {
    "type": "Feature",
    "geometry": {
       "type": "Point",
       "coordinates":  [ -76.58570229,39.36811867 ]
    },
    "properties": {
    "Location":"1400 MERIDENE DR",
    "District":"NORTHEAST"
    }
  },
  {
    "type": "Feature",
    "geometry": {
       "type": "Point",
       "coordinates":  [ -76.6059949,39.27752342 ]
    },
    "properties": {
    "Location":"0 PIERSIDE DR",
    "District":"SOUTHERN"
    }
  },
  {
    "type": "Feature",
    "geometry": {
       "type": "Point",
       "coordinates":  [ -76.59282021,39.23188196 ]
    },
    "properties": {
    "Location":"1300 PONTIAC AVE",
    "District":"SOUTHERN"
    }
  },
  {
    "type": "Feature",
    "geometry": {
       "type": "Point",
       "coordinates":  [ -76.64760222,39.30132742 ]
    },
    "properties": {
    "Location":"1100 N MONROE ST",
    "District":"WESTERN"
    }
  },
  {
    "type": "Feature",
    "geometry": {
       "type": "Point",
       "coordinates":  [ -76.65719121,39.30858047 ]
    },
    "properties": {
    "Location":"1800 N WARWICK AVE",
    "District":"WESTERN"
    }
  },
  {
    "type": "Feature",
    "geometry": {
       "type": "Point",
       "coordinates":  [ -76.6108988,39.32207812 ]
    },
    "properties": {
    "Location":"400 E 28TH ST",
    "District":"NORTHERN"
    }
  },
  {
    "type": "Feature",
    "geometry": {
       "type": "Point",
       "coordinates":  [ -76.65194578,39.34380374 ]
    },
    "properties": {
    "Location":"2200 W COLD SPRING LN",
    "District":"NORTHERN"
    }
  },
  {
    "type": "Feature",
    "geometry": {
       "type": "Point",
       "coordinates":  [ -76.5969561,39.28739551 ]
    },
    "properties": {
    "Location":"300 S CAROLINE ST",
    "District":"SOUTHEAST"
    }
  },
  {
    "type": "Feature",
    "geometry": {
       "type": "Point",
       "coordinates":  [ -76.65152072,39.28800585 ]
    },
    "properties": {
    "Location":"0 N SMALLWOOD ST",
    "District":"WESTERN"
    }
  },
  {
    "type": "Feature",
    "geometry": {
       "type": "Point",
       "coordinates":  [ -76.63142336,39.29700643 ]
    },
    "properties": {
    "Location":"800 HARLEM AVE",
    "District":"CENTRAL"
    }
  },
  {
    "type": "Feature",
    "geometry": {
       "type": "Point",
       "coordinates":  [ -76.67294220000001,39.31110629 ]
    },
    "properties": {
    "Location":"3300 CLIFTON AVE",
    "District":"SOUTHWEST"
    }
  },
  {
    "type": "Feature",
    "geometry": {
       "type": "Point",
       "coordinates":  [ -76.59937893,39.22975045 ]
    },
    "properties": {
    "Location":"900 DANTREY CT",
    "District":"SOUTHERN"
    }
  },
  {
    "type": "Feature",
    "geometry": {
       "type": "Point",
       "coordinates":  [ -76.60490499,39.30042418 ]
    },
    "properties": {
    "Location":"900 VALLEY ST",
    "District":"EASTERN"
    }
  },
  {
    "type": "Feature",
    "geometry": {
       "type": "Point",
       "coordinates":  [ -76.6168809,39.31532074 ]
    },
    "properties": {
    "Location":"2300 N CHARLES ST",
    "District":"NORTHERN"
    }
  },
  {
    "type": "Feature",
    "geometry": {
       "type": "Point",
       "coordinates":  [ -76.60034894,39.31981243 ]
    },
    "properties": {
    "Location":"2500 KIRK AVE",
    "District":"NORTHEAST"
    }
  },
  {
    "type": "Feature",
    "geometry": {
       "type": "Point",
       "coordinates":  [ -76.64597622,39.28308191 ]
    },
    "properties": {
    "Location":"1800 RAMSAY ST",
    "District":"SOUTHERN"
    }
  },
  {
    "type": "Feature",
    "geometry": {
       "type": "Point",
       "coordinates":  [ -76.56495599,39.32314808 ]
    },
    "properties": {
    "Location":"3300 DUDLEY AVE",
    "District":"NORTHEAST"
    }
  },
  {
    "type": "Feature",
    "geometry": {
       "type": "Point",
       "coordinates":  [ -76.61978332,39.31780483 ]
    },
    "properties": {
    "Location":"2500 N HOWARD ST",
    "District":"NORTHERN"
    }
  },
  {
    "type": "Feature",
    "geometry": {
       "type": "Point",
       "coordinates":  [ -76.68545704,39.27986926 ]
    },
    "properties": {
    "Location":"400 YALE AVE",
    "District":"SOUTHWEST"
    }
  },
  {
    "type": "Feature",
    "geometry": {
       "type": "Point",
       "coordinates":  [ -76.62081269,39.28838782 ]
    },
    "properties": {
    "Location":"0 S EUTAW ST",
    "District":"CENTRAL"
    }
  },
  {
    "type": "Feature",
    "geometry": {
       "type": "Point",
       "coordinates":  [ -76.68058125,39.29998621 ]
    },
    "properties": {
    "Location":"3800 STOKES DR",
    "District":"SOUTHWEST"
    }
  },
  {
    "type": "Feature",
    "geometry": {
       "type": "Point",
       "coordinates":  [ -76.6444498,39.30126787 ]
    },
    "properties": {
    "Location":"1100 N MOUNT ST",
    "District":"WESTERN"
    }
  },
  {
    "type": "Feature",
    "geometry": {
       "type": "Point",
       "coordinates":  [ -76.61347044,39.29241631 ]
    },
    "properties": {
    "Location":"300 SAINT PAUL ST",
    "District":"CENTRAL"
    }
  },
  {
    "type": "Feature",
    "geometry": {
       "type": "Point",
       "coordinates":  [ -76.65292075,39.30184231 ]
    },
    "properties": {
    "Location":"2200 WINCHESTER ST",
    "District":"WESTERN"
    }
  },
  {
    "type": "Feature",
    "geometry": {
       "type": "Point",
       "coordinates":  [ -76.60588323,39.29113223 ]
    },
    "properties": {
    "Location":"100 N FRONT ST",
    "District":"SOUTHEAST"
    }
  },
  {
    "type": "Feature",
    "geometry": {
       "type": "Point",
       "coordinates":  [ -76.63584083,39.30611007 ]
    },
    "properties": {
    "Location":"1900 DIVISION ST",
    "District":"CENTRAL"
    }
  },
  {
    "type": "Feature",
    "geometry": {
       "type": "Point",
       "coordinates":  [ -76.62901157,39.33710921 ]
    },
    "properties": {
    "Location":"700 W 40TH ST",
    "District":"NORTHERN"
    }
  },
  {
    "type": "Feature",
    "geometry": {
       "type": "Point",
       "coordinates":  [ -76.65846347,39.33854935 ]
    },
    "properties": {
    "Location":"2400 LOYOLA NORTHWAY",
    "District":"NORTHERN"
    }
  },
  {
    "type": "Feature",
    "geometry": {
       "type": "Point",
       "coordinates":  [ -76.68056781,39.32278156 ]
    },
    "properties": {
    "Location":"3000 GARRISON BLVD",
    "District":"NORTHWEST"
    }
  },
  {
    "type": "Feature",
    "geometry": {
       "type": "Point",
       "coordinates":  [ -76.62369484,39.28837778 ]
    },
    "properties": {
    "Location":"0 S GREENE ST",
    "District":"CENTRAL"
    }
  },
  {
    "type": "Feature",
    "geometry": {
       "type": "Point",
       "coordinates":  [ -76.58214186,39.36264656 ]
    },
    "properties": {
    "Location":"1600 WADSWORTH WAY",
    "District":"NORTHEAST"
    }
  },
  {
    "type": "Feature",
    "geometry": {
       "type": "Point",
       "coordinates":  [ -76.62597716,39.30873612 ]
    },
    "properties": {
    "Location":"1600 PARK AVE",
    "District":"CENTRAL"
    }
  },
  {
    "type": "Feature",
    "geometry": {
       "type": "Point",
       "coordinates":  [ -76.65119477,39.30881167 ]
    },
    "properties": {
    "Location":"1800 N PULASKI ST",
    "District":"WESTERN"
    }
  },
  {
    "type": "Feature",
    "geometry": {
       "type": "Point",
       "coordinates":  [ -76.64043113,39.30977016 ]
    },
    "properties": {
    "Location":"500 SANFORD PL",
    "District":"CENTRAL"
    }
  },
  {
    "type": "Feature",
    "geometry": {
       "type": "Point",
       "coordinates":  [ -76.64469632,39.30358697 ]
    },
    "properties": {
    "Location":"1300 N MOUNT ST",
    "District":"WESTERN"
    }
  },
  {
    "type": "Feature",
    "geometry": {
       "type": "Point",
       "coordinates":  [ -76.61639264,39.27406485 ]
    },
    "properties": {
    "Location":"100 BURNETT ST",
    "District":"SOUTHERN"
    }
  },
  {
    "type": "Feature",
    "geometry": {
       "type": "Point",
       "coordinates":  [ -76.60722414,39.29379176 ]
    },
    "properties": {
    "Location":"300 N GAY ST",
    "District":"EASTERN"
    }
  },
  {
    "type": "Feature",
    "geometry": {
       "type": "Point",
       "coordinates":  [ -76.57811909,39.29906544 ]
    },
    "properties": {
    "Location":"700 N KENWOOD AVE",
    "District":"EASTERN"
    }
  },
  {
    "type": "Feature",
    "geometry": {
       "type": "Point",
       "coordinates":  [ -76.60458192,39.31352674 ]
    },
    "properties": {
    "Location":"1000 E 22ND ST",
    "District":"EASTERN"
    }
  },
  {
    "type": "Feature",
    "geometry": {
       "type": "Point",
       "coordinates":  [ -76.56696339,39.36051143 ]
    },
    "properties": {
    "Location":"6200 TRAMORE RD",
    "District":"NORTHEAST"
    }
  },
  {
    "type": "Feature",
    "geometry": {
       "type": "Point",
       "coordinates":  [ -76.68306428,39.32747191 ]
    },
    "properties": {
    "Location":"3900 LIBERTY HEIGHTS AVE",
    "District":"NORTHWEST"
    }
  },
  {
    "type": "Feature",
    "geometry": {
       "type": "Point",
       "coordinates":  [ -76.66097878,39.30684484 ]
    },
    "properties": {
    "Location":"1600 BRADDISH AVE",
    "District":"WESTERN"
    }
  },
  {
    "type": "Feature",
    "geometry": {
       "type": "Point",
       "coordinates":  [ -76.60691795,39.29403618 ]
    },
    "properties": {
    "Location":"300 GAY ST",
    "District":"EASTERN"
    }
  },
  {
    "type": "Feature",
    "geometry": {
       "type": "Point",
       "coordinates":  [ -76.62575246,39.29940925 ]
    },
    "properties": {
    "Location":"500 W PRESTON ST",
    "District":"CENTRAL"
    }
  },
  {
    "type": "Feature",
    "geometry": {
       "type": "Point",
       "coordinates":  [ -76.62580684,39.244864299999996 ]
    },
    "properties": {
    "Location":"3300 ROUND RD",
    "District":"SOUTHERN"
    }
  },
  {
    "type": "Feature",
    "geometry": {
       "type": "Point",
       "coordinates":  [ -76.6095321,39.31629765 ]
    },
    "properties": {
    "Location":"2400 GREENMOUNT AVE",
    "District":"EASTERN"
    }
  },
  {
    "type": "Feature",
    "geometry": {
       "type": "Point",
       "coordinates":  [ -76.59928389,39.31200402 ]
    },
    "properties": {
    "Location":"1400 E NORTH AVE",
    "District":"EASTERN"
    }
  },
  {
    "type": "Feature",
    "geometry": {
       "type": "Point",
       "coordinates":  [ -76.60566531,39.35141227 ]
    },
    "properties": {
    "Location":"700 BEAUMONT AVE",
    "District":"NORTHERN"
    }
  },
  {
    "type": "Feature",
    "geometry": {
       "type": "Point",
       "coordinates":  [ -76.68854098,39.26811343 ]
    },
    "properties": {
    "Location":"4000 WILKENS AVE",
    "District":"SOUTHWEST"
    }
  },
  {
    "type": "Feature",
    "geometry": {
       "type": "Point",
       "coordinates":  [ -76.5756368,39.29534905 ]
    },
    "properties": {
    "Location":"200 N CURLEY ST",
    "District":"SOUTHEAST"
    }
  },
  {
    "type": "Feature",
    "geometry": {
       "type": "Point",
       "coordinates":  [ -76.56694964,39.37098487 ]
    },
    "properties": {
    "Location":"7000 MCCLEAN BLVD",
    "District":"NORTHEAST"
    }
  },
  {
    "type": "Feature",
    "geometry": {
       "type": "Point",
       "coordinates":  [ -76.60769382,39.29070946 ]
    },
    "properties": {
    "Location":"600 E FAYETTE ST",
    "District":"CENTRAL"
    }
  },
  {
    "type": "Feature",
    "geometry": {
       "type": "Point",
       "coordinates":  [ -76.65508145,39.29400357 ]
    },
    "properties": {
    "Location":"2400 LAURETTA AVE",
    "District":"WESTERN"
    }
  },
  {
    "type": "Feature",
    "geometry": {
       "type": "Point",
       "coordinates":  [ -76.68002707,39.28409107 ]
    },
    "properties": {
    "Location":"3800 OLD FREDERICK RD",
    "District":"SOUTHWEST"
    }
  },
  {
    "type": "Feature",
    "geometry": {
       "type": "Point",
       "coordinates":  [ -76.59417607,39.29402018 ]
    },
    "properties": {
    "Location":"200 N BROADWAY ST",
    "District":"SOUTHEAST"
    }
  },
  {
    "type": "Feature",
    "geometry": {
       "type": "Point",
       "coordinates":  [ -76.60513303,39.30001848 ]
    },
    "properties": {
    "Location":"800 MC ALEER CT",
    "District":"EASTERN"
    }
  },
  {
    "type": "Feature",
    "geometry": {
       "type": "Point",
       "coordinates":  [ -76.69462390000001,39.35067333 ]
    },
    "properties": {
    "Location":"5800 REISTERSTOWN RD",
    "District":"NORTHWEST"
    }
  },
  {
    "type": "Feature",
    "geometry": {
       "type": "Point",
       "coordinates":  [ -76.59048933,39.32117778 ]
    },
    "properties": {
    "Location":"2800 HARFORD RD",
    "District":"NORTHEAST"
    }
  },
  {
    "type": "Feature",
    "geometry": {
       "type": "Point",
       "coordinates":  [ -76.6168809,39.31532074 ]
    },
    "properties": {
    "Location":"2300 N CHARLES ST",
    "District":"NORTHERN"
    }
  },
  {
    "type": "Feature",
    "geometry": {
       "type": "Point",
       "coordinates":  [ -76.61150505,39.29883154 ]
    },
    "properties": {
    "Location":"300 E MADISON ST",
    "District":"CENTRAL"
    }
  },
  {
    "type": "Feature",
    "geometry": {
       "type": "Point",
       "coordinates":  [ -76.64933615,39.36792853 ]
    },
    "properties": {
    "Location":"1300 SMITH AVE",
    "District":"NORTHERN"
    }
  },
  {
    "type": "Feature",
    "geometry": {
       "type": "Point",
       "coordinates":  [ -76.65115868,39.28341826 ]
    },
    "properties": {
    "Location":"300 S SMALLWOOD ST",
    "District":"SOUTHWEST"
    }
  },
  {
    "type": "Feature",
    "geometry": {
       "type": "Point",
       "coordinates":  [ -76.66718729,39.29714889 ]
    },
    "properties": {
    "Location":"3000 W LANVALE ST",
    "District":"SOUTHWEST"
    }
  },
  {
    "type": "Feature",
    "geometry": {
       "type": "Point",
       "coordinates":  [ -76.67600878,39.28822019 ]
    },
    "properties": {
    "Location":"100 N MONASTERY AVE",
    "District":"SOUTHWEST"
    }
  },
  {
    "type": "Feature",
    "geometry": {
       "type": "Point",
       "coordinates":  [ -76.58857579,39.31146702 ]
    },
    "properties": {
    "Location":"1800 N CHESTER ST",
    "District":"EASTERN"
    }
  },
  {
    "type": "Feature",
    "geometry": {
       "type": "Point",
       "coordinates":  [ -76.6067915,39.35280919 ]
    },
    "properties": {
    "Location":"5200 CRAIG AVE",
    "District":"NORTHERN"
    }
  },
  {
    "type": "Feature",
    "geometry": {
       "type": "Point",
       "coordinates":  [ -76.56985816,39.36921107 ]
    },
    "properties": {
    "Location":"2200 PENTLAND DR",
    "District":"NORTHEAST"
    }
  },
  {
    "type": "Feature",
    "geometry": {
       "type": "Point",
       "coordinates":  [ -76.57568934,39.29625732 ]
    },
    "properties": {
    "Location":"400 N CURLEY ST",
    "District":"SOUTHEAST"
    }
  },
  {
    "type": "Feature",
    "geometry": {
       "type": "Point",
       "coordinates":  [ -76.60969955,39.28982046 ]
    },
    "properties": {
    "Location":"400 E BALTIMORE ST",
    "District":"CENTRAL"
    }
  },
  {
    "type": "Feature",
    "geometry": {
       "type": "Point",
       "coordinates":  [ -76.63944533,39.31435954 ]
    },
    "properties": {
    "Location":"2500 MADISON AVE",
    "District":"CENTRAL"
    }
  },
  {
    "type": "Feature",
    "geometry": {
       "type": "Point",
       "coordinates":  [ -76.59422443,39.28930088 ]
    },
    "properties": {
    "Location":"1600 E PRATT ST",
    "District":"SOUTHEAST"
    }
  },
  {
    "type": "Feature",
    "geometry": {
       "type": "Point",
       "coordinates":  [ -76.58200986,39.30684095 ]
    },
    "properties": {
    "Location":"2500 E HOFFMAN ST",
    "District":"EASTERN"
    }
  },
  {
    "type": "Feature",
    "geometry": {
       "type": "Point",
       "coordinates":  [ -76.60386161,39.32707837 ]
    },
    "properties": {
    "Location":"3200 ELLERSLIE AVE",
    "District":"NORTHERN"
    }
  },
  {
    "type": "Feature",
    "geometry": {
       "type": "Point",
       "coordinates":  [ -76.55087227,39.31880387 ]
    },
    "properties": {
    "Location":"4800 BOWLAND AVE",
    "District":"NORTHEAST"
    }
  },
  {
    "type": "Feature",
    "geometry": {
       "type": "Point",
       "coordinates":  [ -76.53906309999999,39.28903977 ]
    },
    "properties": {
    "Location":"400 IMLA ST",
    "District":"SOUTHEAST"
    }
  },
  {
    "type": "Feature",
    "geometry": {
       "type": "Point",
       "coordinates":  [ -76.68295837,39.31913184 ]
    },
    "properties": {
    "Location":"3900 CARLISLE AVE",
    "District":"NORTHWEST"
    }
  },
  {
    "type": "Feature",
    "geometry": {
       "type": "Point",
       "coordinates":  [ -76.63940109,39.28458492 ]
    },
    "properties": {
    "Location":"1400 MCHENRY ST",
    "District":"SOUTHERN"
    }
  },
  {
    "type": "Feature",
    "geometry": {
       "type": "Point",
       "coordinates":  [ -76.60594711,39.29501601 ]
    },
    "properties": {
    "Location":"400 COLVIN ST",
    "District":"EASTERN"
    }
  },
  {
    "type": "Feature",
    "geometry": {
       "type": "Point",
       "coordinates":  [ -76.68314035,39.33333819 ]
    },
    "properties": {
    "Location":"3900 GARRISON BLVD",
    "District":"NORTHWEST"
    }
  },
  {
    "type": "Feature",
    "geometry": {
       "type": "Point",
       "coordinates":  [ -76.61150505,39.29883154 ]
    },
    "properties": {
    "Location":"300 E MADISON ST",
    "District":"CENTRAL"
    }
  },
  {
    "type": "Feature",
    "geometry": {
       "type": "Point",
       "coordinates":  [ -76.63253917,39.29727633 ]
    },
    "properties": {
    "Location":"700 DOLPHIN ST",
    "District":"CENTRAL"
    }
  },
  {
    "type": "Feature",
    "geometry": {
       "type": "Point",
       "coordinates":  [ -76.61150505,39.29883154 ]
    },
    "properties": {
    "Location":"300 E MADISON ST",
    "District":"CENTRAL"
    }
  },
  {
    "type": "Feature",
    "geometry": {
       "type": "Point",
       "coordinates":  [ -76.65844498,39.33135535 ]
    },
    "properties": {
    "Location":"3700 COTTAGE AVE",
    "District":"NORTHWEST"
    }
  },
  {
    "type": "Feature",
    "geometry": {
       "type": "Point",
       "coordinates":  [ -76.65398558,39.31863125 ]
    },
    "properties": {
    "Location":"2400 LIBERTY HEIGHTS AVE",
    "District":"WESTERN"
    }
  },
  {
    "type": "Feature",
    "geometry": {
       "type": "Point",
       "coordinates":  [ -76.60308567,39.31724871 ]
    },
    "properties": {
    "Location":"2400 KIRK AVE",
    "District":"EASTERN"
    }
  },
  {
    "type": "Feature",
    "geometry": {
       "type": "Point",
       "coordinates":  [ -76.70969722,39.36419791 ]
    },
    "properties": {
    "Location":"3900 GLENGYLE AVE",
    "District":"NORTHWEST"
    }
  },
  {
    "type": "Feature",
    "geometry": {
       "type": "Point",
       "coordinates":  [ -76.57073653,39.36644566 ]
    },
    "properties": {
    "Location":"2200 PINEWOOD AVE",
    "District":"NORTHEAST"
    }
  },
  {
    "type": "Feature",
    "geometry": {
       "type": "Point",
       "coordinates":  [ -76.69499353,39.28359829 ]
    },
    "properties": {
    "Location":"0 S TREMONT RD",
    "District":"SOUTHWEST"
    }
  },
  {
    "type": "Feature",
    "geometry": {
       "type": "Point",
       "coordinates":  [ -76.64523799,39.25412097 ]
    },
    "properties": {
    "Location":"2900 STRANDEN RD",
    "District":"SOUTHERN"
    }
  },
  {
    "type": "Feature",
    "geometry": {
       "type": "Point",
       "coordinates":  [ -76.54042648,39.31409535 ]
    },
    "properties": {
    "Location":"6500 FRANKFORD AVE",
    "District":"NORTHEAST"
    }
  },
  {
    "type": "Feature",
    "geometry": {
       "type": "Point",
       "coordinates":  [ -76.64548194,39.29229093 ]
    },
    "properties": {
    "Location":"300 FULTON ST",
    "District":"WESTERN"
    }
  },
  {
    "type": "Feature",
    "geometry": {
       "type": "Point",
       "coordinates":  [ -76.68258915,39.35683924 ]
    },
    "properties": {
    "Location":"5800 HIGHGATE DR",
    "District":"NORTHWEST"
    }
  },
  {
    "type": "Feature",
    "geometry": {
       "type": "Point",
       "coordinates":  [ -76.61468042,39.28779978 ]
    },
    "properties": {
    "Location":"0 E LOMBARD ST",
    "District":"CENTRAL"
    }
  },
  {
    "type": "Feature",
    "geometry": {
       "type": "Point",
       "coordinates":  [ -76.61468042,39.28779978 ]
    },
    "properties": {
    "Location":"0 E LOMBARD ST",
    "District":"CENTRAL"
    }
  },
  {
    "type": "Feature",
    "geometry": {
       "type": "Point",
       "coordinates":  [ -76.7077829,39.3641205 ]
    },
    "properties": {
    "Location":"7000 FIELDCREST RD",
    "District":"NORTHWEST"
    }
  },
  {
    "type": "Feature",
    "geometry": {
       "type": "Point",
       "coordinates":  [ -76.6623247,39.3545096 ]
    },
    "properties": {
    "Location":"2400 W BELVEDERE AVE",
    "District":"NORTHERN"
    }
  },
  {
    "type": "Feature",
    "geometry": {
       "type": "Point",
       "coordinates":  [ -76.6690551,39.34025839 ]
    },
    "properties": {
    "Location":"4500 GARDEN DR",
    "District":"NORTHWEST"
    }
  },
  {
    "type": "Feature",
    "geometry": {
       "type": "Point",
       "coordinates":  [ -76.65947585,39.32039613 ]
    },
    "properties": {
    "Location":"2700 LIBERTY HEIGHTS AVE",
    "District":"NORTHWEST"
    }
  },
  {
    "type": "Feature",
    "geometry": {
       "type": "Point",
       "coordinates":  [ -76.67562054,39.294135100000005 ]
    },
    "properties": {
    "Location":"3500 EDMONDSON AVE",
    "District":"SOUTHWEST"
    }
  },
  {
    "type": "Feature",
    "geometry": {
       "type": "Point",
       "coordinates":  [ -76.617712,39.28879461 ]
    },
    "properties": {
    "Location":"0 HOPKINS PL",
    "District":"CENTRAL"
    }
  },
  {
    "type": "Feature",
    "geometry": {
       "type": "Point",
       "coordinates":  [ -76.57277233,39.34861518 ]
    },
    "properties": {
    "Location":"2500 ALBION AVE",
    "District":"NORTHEAST"
    }
  },
  {
    "type": "Feature",
    "geometry": {
       "type": "Point",
       "coordinates":  [ -76.61175920000001,39.26841099 ]
    },
    "properties": {
    "Location":"100 E WELLS ST",
    "District":"SOUTHERN"
    }
  },
  {
    "type": "Feature",
    "geometry": {
       "type": "Point",
       "coordinates":  [ -76.57305834,39.30752662 ]
    },
    "properties": {
    "Location":"1400 EDISON HWY",
    "District":"EASTERN"
    }
  },
  {
    "type": "Feature",
    "geometry": {
       "type": "Point",
       "coordinates":  [ -76.61652589,39.309848200000005 ]
    },
    "properties": {
    "Location":"1800 N CHARLES ST",
    "District":"CENTRAL"
    }
  },
  {
    "type": "Feature",
    "geometry": {
       "type": "Point",
       "coordinates":  [ -76.70585536,39.30645734 ]
    },
    "properties": {
    "Location":"4800 CLIFTON AVE",
    "District":"SOUTHWEST"
    }
  },
  {
    "type": "Feature",
    "geometry": {
       "type": "Point",
       "coordinates":  [ -76.6983432,39.33426626 ]
    },
    "properties": {
    "Location":"4900 HADDON AVE",
    "District":"NORTHWEST"
    }
  },
  {
    "type": "Feature",
    "geometry": {
       "type": "Point",
       "coordinates":  [ -76.70307928,39.3098787 ]
    },
    "properties": {
    "Location":"2100 CRIMEA RD",
    "District":"SOUTHWEST"
    }
  },
  {
    "type": "Feature",
    "geometry": {
       "type": "Point",
       "coordinates":  [ -76.61205662,39.28664177 ]
    },
    "properties": {
    "Location":"200 E PRATT ST",
    "District":"CENTRAL"
    }
  },
  {
    "type": "Feature",
    "geometry": {
       "type": "Point",
       "coordinates":  [ -76.60902074,39.35088678 ]
    },
    "properties": {
    "Location":"500 CHATEAU AVE",
    "District":"NORTHERN"
    }
  },
  {
    "type": "Feature",
    "geometry": {
       "type": "Point",
       "coordinates":  [ -76.65432572,39.26239479 ]
    },
    "properties": {
    "Location":"1900 LETITIA AVE",
    "District":"SOUTHWEST"
    }
  },
  {
    "type": "Feature",
    "geometry": {
       "type": "Point",
       "coordinates":  [ -76.71023892,39.354844899999996 ]
    },
    "properties": {
    "Location":"6600 EBERLE DR",
    "District":"NORTHWEST"
    }
  },
  {
    "type": "Feature",
    "geometry": {
       "type": "Point",
       "coordinates":  [ -76.66333975,39.31175205 ]
    },
    "properties": {
    "Location":"2100 KOKO LN",
    "District":"WESTERN"
    }
  },
  {
    "type": "Feature",
    "geometry": {
       "type": "Point",
       "coordinates":  [ -76.68390336,39.30071586 ]
    },
    "properties": {
    "Location":"4100 MOUNTWOOD RD",
    "District":"SOUTHWEST"
    }
  },
  {
    "type": "Feature",
    "geometry": {
       "type": "Point",
       "coordinates":  [ -76.63817531,39.27853181 ]
    },
    "properties": {
    "Location":"1500 WASHINGTON BLVD",
    "District":"SOUTHERN"
    }
  },
  {
    "type": "Feature",
    "geometry": {
       "type": "Point",
       "coordinates":  [ -76.64875256,39.28815738 ]
    },
    "properties": {
    "Location":"2000 W BALTIMORE ST",
    "District":"WESTERN"
    }
  },
  {
    "type": "Feature",
    "geometry": {
       "type": "Point",
       "coordinates":  [ -76.61393485,39.29237412 ]
    },
    "properties": {
    "Location":"300 SAINT PAUL PL",
    "District":"CENTRAL"
    }
  },
  {
    "type": "Feature",
    "geometry": {
       "type": "Point",
       "coordinates":  [ -76.64644155,39.30795857 ]
    },
    "properties": {
    "Location":"1700 N FULTON AVE",
    "District":"WESTERN"
    }
  },
  {
    "type": "Feature",
    "geometry": {
       "type": "Point",
       "coordinates":  [ -76.56380848,39.32788738 ]
    },
    "properties": {
    "Location":"4200 SHELDON AVE",
    "District":"NORTHEAST"
    }
  },
  {
    "type": "Feature",
    "geometry": {
       "type": "Point",
       "coordinates":  [ -76.63239609,39.24443842 ]
    },
    "properties": {
    "Location":"800 W PATAPSCO AVE",
    "District":"SOUTHERN"
    }
  },
  {
    "type": "Feature",
    "geometry": {
       "type": "Point",
       "coordinates":  [ -76.67443286,39.31316979 ]
    },
    "properties": {
    "Location":"3400 ELGIN AVE",
    "District":"SOUTHWEST"
    }
  },
  {
    "type": "Feature",
    "geometry": {
       "type": "Point",
       "coordinates":  [ -76.65947585,39.32039613 ]
    },
    "properties": {
    "Location":"2700 LIBERTY HEIGHTS AVE",
    "District":"NORTHWEST"
    }
  },
  {
    "type": "Feature",
    "geometry": {
       "type": "Point",
       "coordinates":  [ -76.66396775,39.32177978 ]
    },
    "properties": {
    "Location":"2900 LIBERTY HEIGHTS AVE",
    "District":"NORTHWEST"
    }
  },
  {
    "type": "Feature",
    "geometry": {
       "type": "Point",
       "coordinates":  [ -76.63293052,39.28250501 ]
    },
    "properties": {
    "Location":"1100 WASHINGTON BLVD",
    "District":"SOUTHERN"
    }
  },
  {
    "type": "Feature",
    "geometry": {
       "type": "Point",
       "coordinates":  [ -76.58423081,39.31235159 ]
    },
    "properties": {
    "Location":"1800 N GAY ST",
    "District":"EASTERN"
    }
  },
  {
    "type": "Feature",
    "geometry": {
       "type": "Point",
       "coordinates":  [ -76.59758494,39.32855289 ]
    },
    "properties": {
    "Location":"1300 E 33RD ST",
    "District":"NORTHEAST"
    }
  },
  {
    "type": "Feature",
    "geometry": {
       "type": "Point",
       "coordinates":  [ -76.66586786,39.32261655 ]
    },
    "properties": {
    "Location":"3000 LIBERTY HGTS AVE",
    "District":"NORTHWEST"
    }
  },
  {
    "type": "Feature",
    "geometry": {
       "type": "Point",
       "coordinates":  [ -76.63402518,39.31024789 ]
    },
    "properties": {
    "Location":"1000 W NORTH AVE",
    "District":"CENTRAL"
    }
  },
  {
    "type": "Feature",
    "geometry": {
       "type": "Point",
       "coordinates":  [ -76.59414766,39.34277407 ]
    },
    "properties": {
    "Location":"4400 MARBLE HALL RD",
    "District":"NORTHEAST"
    }
  },
  {
    "type": "Feature",
    "geometry": {
       "type": "Point",
       "coordinates":  [ -76.65398558,39.31863125 ]
    },
    "properties": {
    "Location":"2400 LIBERTY HTS",
    "District":"WESTERN"
    }
  },
  {
    "type": "Feature",
    "geometry": {
       "type": "Point",
       "coordinates":  [ -76.65947585,39.32039613 ]
    },
    "properties": {
    "Location":"2700 LIBERTY HEIGHTS AVE",
    "District":"NORTHWEST"
    }
  },
  {
    "type": "Feature",
    "geometry": {
       "type": "Point",
       "coordinates":  [ -76.66584864,39.30925275 ]
    },
    "properties": {
    "Location":"2900 W NORTH AVE",
    "District":"SOUTHWEST"
    }
  },
  {
    "type": "Feature",
    "geometry": {
       "type": "Point",
       "coordinates":  [ -76.58430538,39.30932618 ]
    },
    "properties": {
    "Location":"1600 N MONTFORD AVE",
    "District":"EASTERN"
    }
  },
  {
    "type": "Feature",
    "geometry": {
       "type": "Point",
       "coordinates":  [ -76.6623247,39.3545096 ]
    },
    "properties": {
    "Location":"2400 W BELVEDERE AVE",
    "District":"NORTHERN"
    }
  },
  {
    "type": "Feature",
    "geometry": {
       "type": "Point",
       "coordinates":  [ -76.60780896,39.3434324 ]
    },
    "properties": {
    "Location":"500 OAKLAND AVE",
    "District":"NORTHERN"
    }
  },
  {
    "type": "Feature",
    "geometry": {
       "type": "Point",
       "coordinates":  [ -76.57987786,39.30899885 ]
    },
    "properties": {
    "Location":"2700 E FEDERAL ST",
    "District":"EASTERN"
    }
  },
  {
    "type": "Feature",
    "geometry": {
       "type": "Point",
       "coordinates":  [ -76.647961,39.25348015 ]
    },
    "properties": {
    "Location":"2500 MARBOURNE",
    "District":"SOUTHERN"
    }
  },
  {
    "type": "Feature",
    "geometry": {
       "type": "Point",
       "coordinates":  [ -76.59952503,39.29143231 ]
    },
    "properties": {
    "Location":"1300 W BALTIMORE ST",
    "District":"SOUTHEAST"
    }
  },
  {
    "type": "Feature",
    "geometry": {
       "type": "Point",
       "coordinates":  [ -76.60769054,39.29056182 ]
    },
    "properties": {
    "Location":"600 E FAYETTE ST",
    "District":"CENTRAL"
    }
  },
  {
    "type": "Feature",
    "geometry": {
       "type": "Point",
       "coordinates":  [ -76.65929097,39.33695388 ]
    },
    "properties": {
    "Location":"2400 OSWEGO AVE",
    "District":"NORTHERN"
    }
  },
  {
    "type": "Feature",
    "geometry": {
       "type": "Point",
       "coordinates":  [ -76.70016627,39.35666304 ]
    },
    "properties": {
    "Location":"4000 FORDS LN",
    "District":"NORTHWEST"
    }
  },
  {
    "type": "Feature",
    "geometry": {
       "type": "Point",
       "coordinates":  [ -76.60360518,39.23015548 ]
    },
    "properties": {
    "Location":"4100 AUDREY AVE",
    "District":"SOUTHERN"
    }
  },
  {
    "type": "Feature",
    "geometry": {
       "type": "Point",
       "coordinates":  [ -76.68561191,39.3238645 ]
    },
    "properties": {
    "Location":"4000 NORFOLK AVE",
    "District":"NORTHWEST"
    }
  },
  {
    "type": "Feature",
    "geometry": {
       "type": "Point",
       "coordinates":  [ -76.60691974,39.2878191 ]
    },
    "properties": {
    "Location":"100 MARKET PL",
    "District":"CENTRAL"
    }
  },
  {
    "type": "Feature",
    "geometry": {
       "type": "Point",
       "coordinates":  [ -76.60108222,39.32857089 ]
    },
    "properties": {
    "Location":"1000 E 33RD ST",
    "District":"NORTHEAST"
    }
  },
  {
    "type": "Feature",
    "geometry": {
       "type": "Point",
       "coordinates":  [ -76.61225328,39.27593601 ]
    },
    "properties": {
    "Location":"1200 LIGHT ST",
    "District":"SOUTHERN"
    }
  },
  {
    "type": "Feature",
    "geometry": {
       "type": "Point",
       "coordinates":  [ -76.57666718,39.30017228 ]
    },
    "properties": {
    "Location":"800 N LINWOOD AVE",
    "District":"EASTERN"
    }
  },
  {
    "type": "Feature",
    "geometry": {
       "type": "Point",
       "coordinates":  [ -76.66209930000001,39.34514891 ]
    },
    "properties": {
    "Location":"2700 VIRGINIA AVE",
    "District":"NORTHERN"
    }
  },
  {
    "type": "Feature",
    "geometry": {
       "type": "Point",
       "coordinates":  [ -76.65194578,39.34380374 ]
    },
    "properties": {
    "Location":"2200 W COLD SPRING LN",
    "District":"NORTHERN"
    }
  },
  {
    "type": "Feature",
    "geometry": {
       "type": "Point",
       "coordinates":  [ -76.68137220000001,39.33868854 ]
    },
    "properties": {
    "Location":"3900 PENHURST AVE",
    "District":"NORTHWEST"
    }
  },
  {
    "type": "Feature",
    "geometry": {
       "type": "Point",
       "coordinates":  [ -76.69210575,39.3406721 ]
    },
    "properties": {
    "Location":"4300 GROVELAND AVE",
    "District":"NORTHWEST"
    }
  },
  {
    "type": "Feature",
    "geometry": {
       "type": "Point",
       "coordinates":  [ -76.63623488,39.31711388 ]
    },
    "properties": {
    "Location":"900 DRUID PARK LAKE DR",
    "District":"NORTHERN"
    }
  },
  {
    "type": "Feature",
    "geometry": {
       "type": "Point",
       "coordinates":  [ -76.56937745,39.29287353 ]
    },
    "properties": {
    "Location":"0 N HIGHLAND AVE",
    "District":"SOUTHEAST"
    }
  },
  {
    "type": "Feature",
    "geometry": {
       "type": "Point",
       "coordinates":  [ -76.56397681,39.32903933 ]
    },
    "properties": {
    "Location":"4200 NICHOLAS AVE",
    "District":"NORTHEAST"
    }
  },
  {
    "type": "Feature",
    "geometry": {
       "type": "Point",
       "coordinates":  [ -76.61346591,39.28507669 ]
    },
    "properties": {
    "Location":"300 LIGHT ST",
    "District":"CENTRAL"
    }
  },
  {
    "type": "Feature",
    "geometry": {
       "type": "Point",
       "coordinates":  [ -76.5635631,39.36771457 ]
    },
    "properties": {
    "Location":"2400 WELLBRIDGE DR",
    "District":"NORTHEAST"
    }
  },
  {
    "type": "Feature",
    "geometry": {
       "type": "Point",
       "coordinates":  [ -76.67990942,39.29736088 ]
    },
    "properties": {
    "Location":"800 MOUNT HOLLY ST",
    "District":"SOUTHWEST"
    }
  },
  {
    "type": "Feature",
    "geometry": {
       "type": "Point",
       "coordinates":  [ -76.54359342,39.34381829 ]
    },
    "properties": {
    "Location":"5800 BELAIR RD",
    "District":"NORTHEAST"
    }
  },
  {
    "type": "Feature",
    "geometry": {
       "type": "Point",
       "coordinates":  [ -76.64250628,39.28226186 ]
    },
    "properties": {
    "Location":"1600 COLE ST",
    "District":"SOUTHERN"
    }
  },
  {
    "type": "Feature",
    "geometry": {
       "type": "Point",
       "coordinates":  [ -76.65905436,39.33197302 ]
    },
    "properties": {
    "Location":"3700 COTTAGE AVE",
    "District":"NORTHWEST"
    }
  },
  {
    "type": "Feature",
    "geometry": {
       "type": "Point",
       "coordinates":  [ -76.61561524,39.27886319 ]
    },
    "properties": {
    "Location":"900 S HANOVER ST",
    "District":"SOUTHERN"
    }
  },
  {
    "type": "Feature",
    "geometry": {
       "type": "Point",
       "coordinates":  [ -76.65041851,39.31981535 ]
    },
    "properties": {
    "Location":"3400 AUCHENTOROLY TER",
    "District":"WESTERN"
    }
  },
  {
    "type": "Feature",
    "geometry": {
       "type": "Point",
       "coordinates":  [ -76.57735491,39.30107214 ]
    },
    "properties": {
    "Location":"2800 ASHLAND AVE",
    "District":"EASTERN"
    }
  },
  {
    "type": "Feature",
    "geometry": {
       "type": "Point",
       "coordinates":  [ -76.68927263,39.31772806 ]
    },
    "properties": {
    "Location":"4200 DUVALL AVE",
    "District":"NORTHWEST"
    }
  },
  {
    "type": "Feature",
    "geometry": {
       "type": "Point",
       "coordinates":  [ -76.57008079,39.30893427 ]
    },
    "properties": {
    "Location":"1600 HIGHLAND AV",
    "District":"EASTERN"
    }
  },
  {
    "type": "Feature",
    "geometry": {
       "type": "Point",
       "coordinates":  [ -76.63306116,39.30217273 ]
    },
    "properties": {
    "Location":"1500 PENNSYLVANIA AVE",
    "District":"CENTRAL"
    }
  },
  {
    "type": "Feature",
    "geometry": {
       "type": "Point",
       "coordinates":  [ -76.59397690000002,39.29101785 ]
    },
    "properties": {
    "Location":"0 S BROADWAY",
    "District":"SOUTHEAST"
    }
  },
  {
    "type": "Feature",
    "geometry": {
       "type": "Point",
       "coordinates":  [ -76.61495571,39.25139129 ]
    },
    "properties": {
    "Location":"3000 S HANOVER ST",
    "District":"SOUTHERN"
    }
  },
  {
    "type": "Feature",
    "geometry": {
       "type": "Point",
       "coordinates":  [ -76.61943073,39.31425094 ]
    },
    "properties": {
    "Location":"2200 N HOWARD ST",
    "District":"NORTHERN"
    }
  },
  {
    "type": "Feature",
    "geometry": {
       "type": "Point",
       "coordinates":  [ -76.68014636,39.3556027 ]
    },
    "properties": {
    "Location":"5700 WINNER AVE",
    "District":"NORTHWEST"
    }
  },
  {
    "type": "Feature",
    "geometry": {
       "type": "Point",
       "coordinates":  [ -76.5881309,39.34577737 ]
    },
    "properties": {
    "Location":"1600 E COLD SPRING LN",
    "District":"NORTHEAST"
    }
  },
  {
    "type": "Feature",
    "geometry": {
       "type": "Point",
       "coordinates":  [ -76.63360043,39.33428099 ]
    },
    "properties": {
    "Location":"1000 W 38TH ST",
    "District":"NORTHERN"
    }
  },
  {
    "type": "Feature",
    "geometry": {
       "type": "Point",
       "coordinates":  [ -76.61158664,39.31114514 ]
    },
    "properties": {
    "Location":"300 E NORTH AVE",
    "District":"EASTERN"
    }
  },
  {
    "type": "Feature",
    "geometry": {
       "type": "Point",
       "coordinates":  [ -76.63151439,39.33436689 ]
    },
    "properties": {
    "Location":"900 W 38TH ST",
    "District":"NORTHERN"
    }
  },
  {
    "type": "Feature",
    "geometry": {
       "type": "Point",
       "coordinates":  [ -76.68483039,39.33131211 ]
    },
    "properties": {
    "Location":"4000 BARRINGTON RD",
    "District":"NORTHWEST"
    }
  },
  {
    "type": "Feature",
    "geometry": {
       "type": "Point",
       "coordinates":  [ -76.5387051,39.28784577 ]
    },
    "properties": {
    "Location":"6400 EASTERN PKWY",
    "District":"SOUTHEAST"
    }
  },
  {
    "type": "Feature",
    "geometry": {
       "type": "Point",
       "coordinates":  [ -76.59703407,39.31092117 ]
    },
    "properties": {
    "Location":"1800 N BOND ST",
    "District":"EASTERN"
    }
  },
  {
    "type": "Feature",
    "geometry": {
       "type": "Point",
       "coordinates":  [ -76.60965147,39.3653598 ]
    },
    "properties": {
    "Location":"500 EVESHAM AVE",
    "District":"NORTHERN"
    }
  },
  {
    "type": "Feature",
    "geometry": {
       "type": "Point",
       "coordinates":  [ -76.61213679,39.27608033 ]
    },
    "properties": {
    "Location":"100 E WEST ST",
    "District":"SOUTHERN"
    }
  },
  {
    "type": "Feature",
    "geometry": {
       "type": "Point",
       "coordinates":  [ -76.61978332,39.31780483 ]
    },
    "properties": {
    "Location":"2500 N HOWARD ST",
    "District":"NORTHERN"
    }
  },
  {
    "type": "Feature",
    "geometry": {
       "type": "Point",
       "coordinates":  [ -76.59770184,39.368377200000005 ]
    },
    "properties": {
    "Location":"6100 MACBETH DR",
    "District":"NORTHERN"
    }
  },
  {
    "type": "Feature",
    "geometry": {
       "type": "Point",
       "coordinates":  [ -76.65726659,39.30955039 ]
    },
    "properties": {
    "Location":"2500 W NORTH AVE",
    "District":"WESTERN"
    }
  },
  {
    "type": "Feature",
    "geometry": {
       "type": "Point",
       "coordinates":  [ -76.68160864,39.36979948 ]
    },
    "properties": {
    "Location":"6300 GREENSPRING AVE",
    "District":"NORTHWEST"
    }
  },
  {
    "type": "Feature",
    "geometry": {
       "type": "Point",
       "coordinates":  [ -76.66887057,39.30198456 ]
    },
    "properties": {
    "Location":"3100 WESTMONT CT",
    "District":"SOUTHWEST"
    }
  },
  {
    "type": "Feature",
    "geometry": {
       "type": "Point",
       "coordinates":  [ -76.57811442,39.30379622 ]
    },
    "properties": {
    "Location":"2800 E CHASE ST",
    "District":"EASTERN"
    }
  },
  {
    "type": "Feature",
    "geometry": {
       "type": "Point",
       "coordinates":  [ -76.60720779,39.33477981 ]
    },
    "properties": {
    "Location":"600 PARKWYRTH AVE",
    "District":"NORTHERN"
    }
  },
  {
    "type": "Feature",
    "geometry": {
       "type": "Point",
       "coordinates":  [ -76.62486039,39.28728065 ]
    },
    "properties": {
    "Location":"600 W LOMBARD ST",
    "District":"CENTRAL"
    }
  },
  {
    "type": "Feature",
    "geometry": {
       "type": "Point",
       "coordinates":  [ -76.60911995,39.33451727 ]
    },
    "properties": {
    "Location":"500 CHESTNUT HILL AVE",
    "District":"NORTHERN"
    }
  },
  {
    "type": "Feature",
    "geometry": {
       "type": "Point",
       "coordinates":  [ -76.6290833,39.24777274 ]
    },
    "properties": {
    "Location":"2700 SPELMAN RD",
    "District":"SOUTHERN"
    }
  },
  {
    "type": "Feature",
    "geometry": {
       "type": "Point",
       "coordinates":  [ -76.64682407,39.28186633 ]
    },
    "properties": {
    "Location":"1900 WILKENS AVE",
    "District":"SOUTHERN"
    }
  },
  {
    "type": "Feature",
    "geometry": {
       "type": "Point",
       "coordinates":  [ -76.64265976,39.31321003 ]
    },
    "properties": {
    "Location":"2500 FRANCIS ST",
    "District":"WESTERN"
    }
  },
  {
    "type": "Feature",
    "geometry": {
       "type": "Point",
       "coordinates":  [ -76.70521949,39.32060736 ]
    },
    "properties": {
    "Location":"2600 GATEHOUSE DR",
    "District":"NORTHWEST"
    }
  },
  {
    "type": "Feature",
    "geometry": {
       "type": "Point",
       "coordinates":  [ -76.65288509999999,39.28009523 ]
    },
    "properties": {
    "Location":"2300 WILKENS AVE",
    "District":"SOUTHWEST"
    }
  },
  {
    "type": "Feature",
    "geometry": {
       "type": "Point",
       "coordinates":  [ -76.59511256,39.31662422 ]
    },
    "properties": {
    "Location":"1600 E 25TH ST",
    "District":"EASTERN"
    }
  },
  {
    "type": "Feature",
    "geometry": {
       "type": "Point",
       "coordinates":  [ -76.68047656,39.32287119 ]
    },
    "properties": {
    "Location":"3000 GARRISON BLVD",
    "District":"NORTHWEST"
    }
  },
  {
    "type": "Feature",
    "geometry": {
       "type": "Point",
       "coordinates":  [ -76.59173653,39.32454412 ]
    },
    "properties": {
    "Location":"1700 E 29TH ST",
    "District":"NORTHEAST"
    }
  },
  {
    "type": "Feature",
    "geometry": {
       "type": "Point",
       "coordinates":  [ -76.60793522,39.35280482 ]
    },
    "properties": {
    "Location":"5200 READY AVE",
    "District":"NORTHERN"
    }
  },
  {
    "type": "Feature",
    "geometry": {
       "type": "Point",
       "coordinates":  [ -76.69561709,39.27568764 ]
    },
    "properties": {
    "Location":"500 BRISBANE RD",
    "District":"SOUTHWEST"
    }
  },
  {
    "type": "Feature",
    "geometry": {
       "type": "Point",
       "coordinates":  [ -76.61086346,39.31147359 ]
    },
    "properties": {
    "Location":"400 E NORTH AVE",
    "District":"EASTERN"
    }
  },
  {
    "type": "Feature",
    "geometry": {
       "type": "Point",
       "coordinates":  [ -76.60745085,39.28794485 ]
    },
    "properties": {
    "Location":"600 E LOMBARD ST",
    "District":"CENTRAL"
    }
  },
  {
    "type": "Feature",
    "geometry": {
       "type": "Point",
       "coordinates":  [ -76.54077562,39.30386274 ]
    },
    "properties": {
    "Location":"6400 PULASKI HWY",
    "District":"NORTHEAST"
    }
  },
  {
    "type": "Feature",
    "geometry": {
       "type": "Point",
       "coordinates":  [ -76.68082932,39.31081776 ]
    },
    "properties": {
    "Location":"3800 CLIFTON AVE",
    "District":"SOUTHWEST"
    }
  },
  {
    "type": "Feature",
    "geometry": {
       "type": "Point",
       "coordinates":  [ -76.70644777,39.28333494 ]
    },
    "properties": {
    "Location":"5300 CARRIAGE CT",
    "District":"SOUTHWEST"
    }
  },
  {
    "type": "Feature",
    "geometry": {
       "type": "Point",
       "coordinates":  [ -76.65977989,39.26023555 ]
    },
    "properties": {
    "Location":"3000 WASHINGTON BLVD",
    "District":"SOUTHWEST"
    }
  },
  {
    "type": "Feature",
    "geometry": {
       "type": "Point",
       "coordinates":  [ -76.64198938,39.28278859 ]
    },
    "properties": {
    "Location":"400 S GILMOR ST",
    "District":"SOUTHERN"
    }
  },
  {
    "type": "Feature",
    "geometry": {
       "type": "Point",
       "coordinates":  [ -76.60641622,39.30142188 ]
    },
    "properties": {
    "Location":"1000 HOMEWOOD AVE",
    "District":"EASTERN"
    }
  },
  {
    "type": "Feature",
    "geometry": {
       "type": "Point",
       "coordinates":  [ -76.6168809,39.31532074 ]
    },
    "properties": {
    "Location":"2300 N CHARLES ST",
    "District":"NORTHERN"
    }
  },
  {
    "type": "Feature",
    "geometry": {
       "type": "Point",
       "coordinates":  [ -76.64064528,39.31021885 ]
    },
    "properties": {
    "Location":"1300 W NORTH AVE",
    "District":"WESTERN"
    }
  },
  {
    "type": "Feature",
    "geometry": {
       "type": "Point",
       "coordinates":  [ -76.61347044,39.29241631 ]
    },
    "properties": {
    "Location":"300 SAINT PAUL ST",
    "District":"CENTRAL"
    }
  },
  {
    "type": "Feature",
    "geometry": {
       "type": "Point",
       "coordinates":  [ -76.60948474,39.32804703 ]
    },
    "properties": {
    "Location":"3200 GREENMOUNT AVE",
    "District":"NORTHERN"
    }
  },
  {
    "type": "Feature",
    "geometry": {
       "type": "Point",
       "coordinates":  [ -76.64263785,39.31077929 ]
    },
    "properties": {
    "Location":"1500 TRACTION ST",
    "District":"WESTERN"
    }
  },
  {
    "type": "Feature",
    "geometry": {
       "type": "Point",
       "coordinates":  [ -76.66434557,39.30021669 ]
    },
    "properties": {
    "Location":"2800 RIGGS AVE",
    "District":"SOUTHWEST"
    }
  },
  {
    "type": "Feature",
    "geometry": {
       "type": "Point",
       "coordinates":  [ -76.62206963,39.29581749 ]
    },
    "properties": {
    "Location":"600 JASPER ST",
    "District":"CENTRAL"
    }
  },
  {
    "type": "Feature",
    "geometry": {
       "type": "Point",
       "coordinates":  [ -76.62250001,39.29151386 ]
    },
    "properties": {
    "Location":"500 W LEXINGTON ST",
    "District":"CENTRAL"
    }
  },
  {
    "type": "Feature",
    "geometry": {
       "type": "Point",
       "coordinates":  [ -76.67802876,39.32280109 ]
    },
    "properties": {
    "Location":"3600 FAIRVIEW AVE",
    "District":"NORTHWEST"
    }
  },
  {
    "type": "Feature",
    "geometry": {
       "type": "Point",
       "coordinates":  [ -76.61306691,39.3011925 ]
    },
    "properties": {
    "Location":"200 E EAGER ST",
    "District":"CENTRAL"
    }
  },
  {
    "type": "Feature",
    "geometry": {
       "type": "Point",
       "coordinates":  [ -76.64083216,39.26277182 ]
    },
    "properties": {
    "Location":"2400 KERMIT CT",
    "District":"SOUTHERN"
    }
  },
  {
    "type": "Feature",
    "geometry": {
       "type": "Point",
       "coordinates":  [ -76.649962,39.28157857 ]
    },
    "properties": {
    "Location":"2100 CHRISTIAN ST",
    "District":"SOUTHWEST"
    }
  },
  {
    "type": "Feature",
    "geometry": {
       "type": "Point",
       "coordinates":  [ -76.59368832,39.29158406 ]
    },
    "properties": {
    "Location":"0 S BROADWAY",
    "District":"SOUTHEAST"
    }
  },
  {
    "type": "Feature",
    "geometry": {
       "type": "Point",
       "coordinates":  [ -76.60219058,39.32482791 ]
    },
    "properties": {
    "Location":"1100 HOMESTEAD ST",
    "District":"NORTHERN"
    }
  },
  {
    "type": "Feature",
    "geometry": {
       "type": "Point",
       "coordinates":  [ -76.60025529,39.33235474 ]
    },
    "properties": {
    "Location":"3600 YOLANDO RD",
    "District":"NORTHEAST"
    }
  },
  {
    "type": "Feature",
    "geometry": {
       "type": "Point",
       "coordinates":  [ -76.69523556,39.28009913 ]
    },
    "properties": {
    "Location":"4900 STAFFORD ST",
    "District":"SOUTHWEST"
    }
  },
  {
    "type": "Feature",
    "geometry": {
       "type": "Point",
       "coordinates":  [ -76.70254869,39.35617645 ]
    },
    "properties": {
    "Location":"6500 REISTERSTOWN RD",
    "District":"NORTHWEST"
    }
  },
  {
    "type": "Feature",
    "geometry": {
       "type": "Point",
       "coordinates":  [ -76.53251607,39.27526612 ]
    },
    "properties": {
    "Location":"1600 DUNDALK AVE",
    "District":"SOUTHEAST"
    }
  },
  {
    "type": "Feature",
    "geometry": {
       "type": "Point",
       "coordinates":  [ -76.64208399,39.28427179 ]
    },
    "properties": {
    "Location":"300 S GILMOR ST",
    "District":"SOUTHERN"
    }
  },
  {
    "type": "Feature",
    "geometry": {
       "type": "Point",
       "coordinates":  [ -76.70452325,39.29510152 ]
    },
    "properties": {
    "Location":"4800 BRIARCLIFT RD",
    "District":"SOUTHWEST"
    }
  },
  {
    "type": "Feature",
    "geometry": {
       "type": "Point",
       "coordinates":  [ -76.65195783,39.25283286 ]
    },
    "properties": {
    "Location":"2500 W PATAPSCO AVE",
    "District":"SOUTHERN"
    }
  },
  {
    "type": "Feature",
    "geometry": {
       "type": "Point",
       "coordinates":  [ -76.57226107,39.36543518 ]
    },
    "properties": {
    "Location":"6500 PIONEER DR",
    "District":"NORTHEAST"
    }
  },
  {
    "type": "Feature",
    "geometry": {
       "type": "Point",
       "coordinates":  [ -76.64254465,39.30730052 ]
    },
    "properties": {
    "Location":"1600 N CALHOUN ST",
    "District":"WESTERN"
    }
  },
  {
    "type": "Feature",
    "geometry": {
       "type": "Point",
       "coordinates":  [ -76.61205662,39.28664177 ]
    },
    "properties": {
    "Location":"200 E PRATT ST",
    "District":"CENTRAL"
    }
  },
  {
    "type": "Feature",
    "geometry": {
       "type": "Point",
       "coordinates":  [ -76.5759304,39.35737453 ]
    },
    "properties": {
    "Location":"5700 EDGEPARK RD",
    "District":"NORTHEAST"
    }
  },
  {
    "type": "Feature",
    "geometry": {
       "type": "Point",
       "coordinates":  [ -76.59766409999999,39.35640704 ]
    },
    "properties": {
    "Location":"1000 CAMERON RD",
    "District":"NORTHERN"
    }
  },
  {
    "type": "Feature",
    "geometry": {
       "type": "Point",
       "coordinates":  [ -76.60982938,39.35555563 ]
    },
    "properties": {
    "Location":"5400 YORK RD",
    "District":"NORTHERN"
    }
  },
  {
    "type": "Feature",
    "geometry": {
       "type": "Point",
       "coordinates":  [ -76.66450706,39.34661209 ]
    },
    "properties": {
    "Location":"2800 WOODLAND AVE",
    "District":"NORTHERN"
    }
  },
  {
    "type": "Feature",
    "geometry": {
       "type": "Point",
       "coordinates":  [ -76.60579013,39.36421284 ]
    },
    "properties": {
    "Location":"700 EVESHAM AVE",
    "District":"NORTHERN"
    }
  },
  {
    "type": "Feature",
    "geometry": {
       "type": "Point",
       "coordinates":  [ -76.5358392,39.28771728 ]
    },
    "properties": {
    "Location":"6500 EASTERN AVE",
    "District":"SOUTHEAST"
    }
  },
  {
    "type": "Feature",
    "geometry": {
       "type": "Point",
       "coordinates":  [ -76.65419801,39.36034259 ]
    },
    "properties": {
    "Location":"1900 GREENBERRY RD",
    "District":"NORTHERN"
    }
  },
  {
    "type": "Feature",
    "geometry": {
       "type": "Point",
       "coordinates":  [ -76.59131631,39.29532866 ]
    },
    "properties": {
    "Location":"1800 ORLEANS ST",
    "District":"EASTERN"
    }
  },
  {
    "type": "Feature",
    "geometry": {
       "type": "Point",
       "coordinates":  [ -76.66593333,39.32995821 ]
    },
    "properties": {
    "Location":"3900 WABASH AVE",
    "District":"NORTHWEST"
    }
  },
  {
    "type": "Feature",
    "geometry": {
       "type": "Point",
       "coordinates":  [ -76.54451085,39.31593217 ]
    },
    "properties": {
    "Location":"6000 MORAVIA RD",
    "District":"NORTHEAST"
    }
  },
  {
    "type": "Feature",
    "geometry": {
       "type": "Point",
       "coordinates":  [ -76.58733959999999,39.3460378 ]
    },
    "properties": {
    "Location":"1700 E COLD SPRING LN",
    "District":"NORTHEAST"
    }
  },
  {
    "type": "Feature",
    "geometry": {
       "type": "Point",
       "coordinates":  [ -76.59949746,39.34504451 ]
    },
    "properties": {
    "Location":"1100 E COLD SPRING LN",
    "District":"NORTHEAST"
    }
  },
  {
    "type": "Feature",
    "geometry": {
       "type": "Point",
       "coordinates":  [ -76.67786140000001,39.35292464 ]
    },
    "properties": {
    "Location":"3200 AVONDALE AVE",
    "District":"NORTHWEST"
    }
  },
  {
    "type": "Feature",
    "geometry": {
       "type": "Point",
       "coordinates":  [ -76.5982589,39.34711521 ]
    },
    "properties": {
    "Location":"1200 LINWORTH AVE",
    "District":"NORTHEAST"
    }
  },
  {
    "type": "Feature",
    "geometry": {
       "type": "Point",
       "coordinates":  [ -76.63621184,39.28990075 ]
    },
    "properties": {
    "Location":"1100 W FAYETTE ST",
    "District":"WESTERN"
    }
  },
  {
    "type": "Feature",
    "geometry": {
       "type": "Point",
       "coordinates":  [ -76.66653675,39.33964378 ]
    },
    "properties": {
    "Location":"4400 PARK HEIGHTS AVE",
    "District":"NORTHWEST"
    }
  },
  {
    "type": "Feature",
    "geometry": {
       "type": "Point",
       "coordinates":  [ -76.57921808,39.29593671 ]
    },
    "properties": {
    "Location":"400 N LAKEWOOD AVE",
    "District":"SOUTHEAST"
    }
  },
  {
    "type": "Feature",
    "geometry": {
       "type": "Point",
       "coordinates":  [ -76.6241459,39.28229082 ]
    },
    "properties": {
    "Location":"600 W CONWAY ST",
    "District":"SOUTHERN"
    }
  },
  {
    "type": "Feature",
    "geometry": {
       "type": "Point",
       "coordinates":  [ -76.61811269,39.3111848 ]
    },
    "properties": {
    "Location":"100 W NORTH AVE",
    "District":"CENTRAL"
    }
  },
  {
    "type": "Feature",
    "geometry": {
       "type": "Point",
       "coordinates":  [ -76.61774218,39.28758505 ]
    },
    "properties": {
    "Location":"100 HOPKINS PL",
    "District":"CENTRAL"
    }
  },
  {
    "type": "Feature",
    "geometry": {
       "type": "Point",
       "coordinates":  [ -76.6246267,39.29031892 ]
    },
    "properties": {
    "Location":"600 W FAYETTE ST",
    "District":"CENTRAL"
    }
  },
  {
    "type": "Feature",
    "geometry": {
       "type": "Point",
       "coordinates":  [ -76.62468007,39.29126809 ]
    },
    "properties": {
    "Location":"600 W LEXINGTON ST",
    "District":"CENTRAL"
    }
  },
  {
    "type": "Feature",
    "geometry": {
       "type": "Point",
       "coordinates":  [ -76.58861472,39.31249032 ]
    },
    "properties": {
    "Location":"2100 E NORTH AVE",
    "District":"EASTERN"
    }
  },
  {
    "type": "Feature",
    "geometry": {
       "type": "Point",
       "coordinates":  [ -76.56318607,39.28314791 ]
    },
    "properties": {
    "Location":"800 GRUNDY ST",
    "District":"SOUTHEAST"
    }
  },
  {
    "type": "Feature",
    "geometry": {
       "type": "Point",
       "coordinates":  [ -76.68459441,39.32030825 ]
    },
    "properties": {
    "Location":"4000 WOODHAVEN AVE",
    "District":"NORTHWEST"
    }
  },
  {
    "type": "Feature",
    "geometry": {
       "type": "Point",
       "coordinates":  [ -76.64649551,39.30889462 ]
    },
    "properties": {
    "Location":"1800 N FULTON AVE",
    "District":"WESTERN"
    }
  },
  {
    "type": "Feature",
    "geometry": {
       "type": "Point",
       "coordinates":  [ -76.60126195,39.23474798 ]
    },
    "properties": {
    "Location":"3700 7TH ST",
    "District":"SOUTHERN"
    }
  },
  {
    "type": "Feature",
    "geometry": {
       "type": "Point",
       "coordinates":  [ -76.6138571,39.2364203 ]
    },
    "properties": {
    "Location":"3800 LEADENHALL ST",
    "District":"SOUTHERN"
    }
  },
  {
    "type": "Feature",
    "geometry": {
       "type": "Point",
       "coordinates":  [ -76.64019643,39.2989184 ]
    },
    "properties": {
    "Location":"1400 W LAFAYETTE AVE",
    "District":"WESTERN"
    }
  },
  {
    "type": "Feature",
    "geometry": {
       "type": "Point",
       "coordinates":  [ -76.60910589,39.30485461 ]
    },
    "properties": {
    "Location":"500 W PRESTON ST",
    "District":"CENTRAL"
    }
  },
  {
    "type": "Feature",
    "geometry": {
       "type": "Point",
       "coordinates":  [ -76.62079537,39.28619109 ]
    },
    "properties": {
    "Location":"400 W PRATT ST",
    "District":"CENTRAL"
    }
  },
  {
    "type": "Feature",
    "geometry": {
       "type": "Point",
       "coordinates":  [ -76.63806238,39.24774565 ]
    },
    "properties": {
    "Location":"1400 W PATAPSCO AVE",
    "District":"SOUTHERN"
    }
  },
  {
    "type": "Feature",
    "geometry": {
       "type": "Point",
       "coordinates":  [ -76.53463606,39.28325389 ]
    },
    "properties": {
    "Location":"6600 BUSHEY ST",
    "District":"SOUTHEAST"
    }
  },
  {
    "type": "Feature",
    "geometry": {
       "type": "Point",
       "coordinates":  [ -76.57064472,39.29626481 ]
    },
    "properties": {
    "Location":"400 N CLINTON ST",
    "District":"SOUTHEAST"
    }
  },
  {
    "type": "Feature",
    "geometry": {
       "type": "Point",
       "coordinates":  [ -76.69967392,39.3451415 ]
    },
    "properties": {
    "Location":"4500 W NORTHERN PKWY",
    "District":"NORTHWEST"
    }
  },
  {
    "type": "Feature",
    "geometry": {
       "type": "Point",
       "coordinates":  [ -76.68352463,39.27819306 ]
    },
    "properties": {
    "Location":"4100 POTTER ST",
    "District":"SOUTHWEST"
    }
  },
  {
    "type": "Feature",
    "geometry": {
       "type": "Point",
       "coordinates":  [ -76.55665298,39.34571966 ]
    },
    "properties": {
    "Location":"5300 WALTHER AVE",
    "District":"NORTHEAST"
    }
  },
  {
    "type": "Feature",
    "geometry": {
       "type": "Point",
       "coordinates":  [ -76.61811269,39.3111848 ]
    },
    "properties": {
    "Location":"100 W NORTH AVE",
    "District":"CENTRAL"
    }
  },
  {
    "type": "Feature",
    "geometry": {
       "type": "Point",
       "coordinates":  [ -76.59091094,39.34442879 ]
    },
    "properties": {
    "Location":"1500 KINGSWAY RD",
    "District":"NORTHEAST"
    }
  },
  {
    "type": "Feature",
    "geometry": {
       "type": "Point",
       "coordinates":  [ -76.5619583,39.32296048 ]
    },
    "properties": {
    "Location":"3500 SHANNON DR",
    "District":"NORTHEAST"
    }
  },
  {
    "type": "Feature",
    "geometry": {
       "type": "Point",
       "coordinates":  [ -76.60951836,39.32221088 ]
    },
    "properties": {
    "Location":"2800 GREENMOUNT AVE",
    "District":"NORTHERN"
    }
  },
  {
    "type": "Feature",
    "geometry": {
       "type": "Point",
       "coordinates":  [ -76.68150727,39.34529668 ]
    },
    "properties": {
    "Location":"3800 W BELVEDERE AVE",
    "District":"NORTHWEST"
    }
  },
  {
    "type": "Feature",
    "geometry": {
       "type": "Point",
       "coordinates":  [ -76.59190272,39.3657474 ]
    },
    "properties": {
    "Location":"1200 SHERWOOD AVE",
    "District":"NORTHEAST"
    }
  },
  {
    "type": "Feature",
    "geometry": {
       "type": "Point",
       "coordinates":  [ -76.60852065,39.30590393 ]
    },
    "properties": {
    "Location":"1400 GREENMOUNT AVE",
    "District":"EASTERN"
    }
  },
  {
    "type": "Feature",
    "geometry": {
       "type": "Point",
       "coordinates":  [ -76.60758903,39.33574105 ]
    },
    "properties": {
    "Location":"3800 OLD YORK RD",
    "District":"NORTHERN"
    }
  },
  {
    "type": "Feature",
    "geometry": {
       "type": "Point",
       "coordinates":  [ -76.59985469,39.2263708 ]
    },
    "properties": {
    "Location":"4300 10TH ST",
    "District":"SOUTHERN"
    }
  },
  {
    "type": "Feature",
    "geometry": {
       "type": "Point",
       "coordinates":  [ -76.59837434,39.31595705 ]
    },
    "properties": {
    "Location":"2300 AIKEN ST",
    "District":"EASTERN"
    }
  },
  {
    "type": "Feature",
    "geometry": {
       "type": "Point",
       "coordinates":  [ -76.58086363,39.29784195 ]
    },
    "properties": {
    "Location":"600 N LUZERNE AVE",
    "District":"SOUTHEAST"
    }
  },
  {
    "type": "Feature",
    "geometry": {
       "type": "Point",
       "coordinates":  [ -76.58127415,39.3041633 ]
    },
    "properties": {
    "Location":"1100 LUZERNE AVE",
    "District":"EASTERN"
    }
  },
  {
    "type": "Feature",
    "geometry": {
       "type": "Point",
       "coordinates":  [ -76.70574753,39.32897728 ]
    },
    "properties": {
    "Location":"5300 GWYNN OAK AVE",
    "District":"NORTHWEST"
    }
  },
  {
    "type": "Feature",
    "geometry": {
       "type": "Point",
       "coordinates":  [ -76.56707769,39.37153542 ]
    },
    "properties": {
    "Location":"7200 MCCLEAN BLVD",
    "District":"NORTHEAST"
    }
  },
  {
    "type": "Feature",
    "geometry": {
       "type": "Point",
       "coordinates":  [ -76.627596,39.27410808 ]
    },
    "properties": {
    "Location":"1500 RUSSELL ST",
    "District":"SOUTHERN"
    }
  },
  {
    "type": "Feature",
    "geometry": {
       "type": "Point",
       "coordinates":  [ -76.63790312,39.28338292 ]
    },
    "properties": {
    "Location":"400 S CAREY ST",
    "District":"SOUTHERN"
    }
  },
  {
    "type": "Feature",
    "geometry": {
       "type": "Point",
       "coordinates":  [ -76.56639453,39.31676933 ]
    },
    "properties": {
    "Location":"3700 LYNDALE AVE",
    "District":"NORTHEAST"
    }
  },
  {
    "type": "Feature",
    "geometry": {
       "type": "Point",
       "coordinates":  [ -76.67938332,39.28533108 ]
    },
    "properties": {
    "Location":"100 S MONASTERY AVE",
    "District":"SOUTHWEST"
    }
  },
  {
    "type": "Feature",
    "geometry": {
       "type": "Point",
       "coordinates":  [ -76.60296913,39.31717067 ]
    },
    "properties": {
    "Location":"800 BONAPARTE AVE",
    "District":"EASTERN"
    }
  },
  {
    "type": "Feature",
    "geometry": {
       "type": "Point",
       "coordinates":  [ -76.65369883,39.29552289 ]
    },
    "properties": {
    "Location":"2300 ARUNAH AVE",
    "District":"WESTERN"
    }
  },
  {
    "type": "Feature",
    "geometry": {
       "type": "Point",
       "coordinates":  [ -76.62076245,39.25082085 ]
    },
    "properties": {
    "Location":"400 ROUNDVIEW RD",
    "District":"SOUTHERN"
    }
  },
  {
    "type": "Feature",
    "geometry": {
       "type": "Point",
       "coordinates":  [ -76.64785133,39.28357076 ]
    },
    "properties": {
    "Location":"1900 WILHELM ST",
    "District":"SOUTHERN"
    }
  },
  {
    "type": "Feature",
    "geometry": {
       "type": "Point",
       "coordinates":  [ -76.59413869,39.31103588 ]
    },
    "properties": {
    "Location":"1800 N REGESTER ST",
    "District":"EASTERN"
    }
  },
  {
    "type": "Feature",
    "geometry": {
       "type": "Point",
       "coordinates":  [ -76.59413869,39.31103588 ]
    },
    "properties": {
    "Location":"1800 N REGESTER ST",
    "District":"EASTERN"
    }
  },
  {
    "type": "Feature",
    "geometry": {
       "type": "Point",
       "coordinates":  [ -76.56841356,39.2924425 ]
    },
    "properties": {
    "Location":"3500 E BALTIMORE ST",
    "District":"SOUTHEAST"
    }
  },
  {
    "type": "Feature",
    "geometry": {
       "type": "Point",
       "coordinates":  [ -76.64471279,39.30380495 ]
    },
    "properties": {
    "Location":"1300 N MOUNT ST",
    "District":"WESTERN"
    }
  },
  {
    "type": "Feature",
    "geometry": {
       "type": "Point",
       "coordinates":  [ -76.66167801,39.30070105 ]
    },
    "properties": {
    "Location":"1100 ASHBURTON ST",
    "District":"SOUTHWEST"
    }
  },
  {
    "type": "Feature",
    "geometry": {
       "type": "Point",
       "coordinates":  [ -76.57894505,39.29219601 ]
    },
    "properties": {
    "Location":"2700 E BALTIMORE ST",
    "District":"SOUTHEAST"
    }
  },
  {
    "type": "Feature",
    "geometry": {
       "type": "Point",
       "coordinates":  [ -76.61421644,39.31868345 ]
    },
    "properties": {
    "Location":"2500 N CALVERT ST",
    "District":"NORTHERN"
    }
  },
  {
    "type": "Feature",
    "geometry": {
       "type": "Point",
       "coordinates":  [ -76.56109562,39.29959202 ]
    },
    "properties": {
    "Location":"4200 E MONUMENT ST",
    "District":"EASTERN"
    }
  },
  {
    "type": "Feature",
    "geometry": {
       "type": "Point",
       "coordinates":  [ -76.58733959999999,39.3460378 ]
    },
    "properties": {
    "Location":"1700 E COLD SPRING LN",
    "District":"NORTHEAST"
    }
  },
  {
    "type": "Feature",
    "geometry": {
       "type": "Point",
       "coordinates":  [ -76.67829888,39.31254428 ]
    },
    "properties": {
    "Location":"2200 ELSINORE AVE",
    "District":"SOUTHWEST"
    }
  },
  {
    "type": "Feature",
    "geometry": {
       "type": "Point",
       "coordinates":  [ -76.57258611,39.33968573 ]
    },
    "properties": {
    "Location":"3000 MONTEBELLO TER",
    "District":"NORTHEAST"
    }
  },
  {
    "type": "Feature",
    "geometry": {
       "type": "Point",
       "coordinates":  [ -76.63804914,39.30122886 ]
    },
    "properties": {
    "Location":"1200 RIGGS AVE",
    "District":"WESTERN"
    }
  },
  {
    "type": "Feature",
    "geometry": {
       "type": "Point",
       "coordinates":  [ -76.57268585,39.29228815 ]
    },
    "properties": {
    "Location":"3100 E BALTIMORE ST",
    "District":"SOUTHEAST"
    }
  },
  {
    "type": "Feature",
    "geometry": {
       "type": "Point",
       "coordinates":  [ -76.6140538,39.2983921 ]
    },
    "properties": {
    "Location":"700 SAINT PAUL ST",
    "District":"CENTRAL"
    }
  },
  {
    "type": "Feature",
    "geometry": {
       "type": "Point",
       "coordinates":  [ -76.56188611,39.31087622 ]
    },
    "properties": {
    "Location":"4000 MAPLE SHADE DR",
    "District":"NORTHEAST"
    }
  },
  {
    "type": "Feature",
    "geometry": {
       "type": "Point",
       "coordinates":  [ -76.57905692,39.30917849 ]
    },